{
"type": "FeatureCollection",
"crs": { "type": "name", "properties": { "name": "urn:ogc:def:crs:OGC:1.3:CRS84" } },
                                                                                                                                  
"features": [
{ "type": "Feature", "properties": { "COD_ICE": "00270", "DISTRITO": "01", "LUGAR": "CIUDAD SANTA CRUZ DE LA SIERRA", "BARRIO": "SANTA ROSITA", "UV": "UV-30", "NOMBREREF": "BET (VECINA) EL KAYKE", "ESTECONOMI": "SERVICIO DE REHABILITACION CON FISIOTERAPIA", "CLASIFICAD": "85193", "DESCRIPCIO": "Servicios de centros terap‚uticos" }, "geometry": { "type": "Point", "coordinates": [ -63.195542181274298, -17.789232920912788 ] } },
{ "type": "Feature", "properties": { "COD_ICE": "04940", "DISTRITO": "01", "LUGAR": "CIUDAD SANTA CRUZ DE LA SIERRA", "BARRIO": "GUAPAY", "UV": "UV-59", "NOMBREREF": "PAE", "ESTECONOMI": "SERVICIO PROFECIONAL DE PSICOLOGIA", "CLASIFICAD": "85193", "DESCRIPCIO": "Servicios de centros terap‚uticos" }, "geometry": { "type": "Point", "coordinates": [ -63.196315035591127, -17.760489892608604 ] } },
{ "type": "Feature", "properties": { "COD_ICE": "05730", "DISTRITO": "01", "LUGAR": "CIUDAD SANTA CRUZ DE LA SIERRA", "BARRIO": "BRIGIDA", "UV": "UV-59", "NOMBREREF": "CENTRO TERAPIA FORMAMOS", "ESTECONOMI": "SERVICIO DE TERAPIA PSICOLOGICA INFANTIL", "CLASIFICAD": "85193", "DESCRIPCIO": "Servicios de centros terap‚uticos" }, "geometry": { "type": "Point", "coordinates": [ -63.195496817962756, -17.758718996284351 ] } },
{ "type": "Feature", "properties": { "COD_ICE": "04950", "DISTRITO": "01", "LUGAR": "CIUDAD SANTA CRUZ DE LA SIERRA", "BARRIO": "EQUIPETROL NORTE", "UV": "UV-59", "NOMBREREF": "APRENDIENDO A VIVIR", "ESTECONOMI": "ORIENTACION Y TRATAMIENTO PSICOLOGICO", "CLASIFICAD": "85193", "DESCRIPCIO": "Servicios de centros terap‚uticos" }, "geometry": { "type": "Point", "coordinates": [ -63.197788222615095, -17.761335955263398 ] } },
{ "type": "Feature", "properties": { "COD_ICE": "04050", "DISTRITO": "10", "LUGAR": "CIUDAD SANTA CRUZ DE LA SIERRA", "BARRIO": "CONDOMINIO COSTA BRAVA", "UV": "UV_121A", "NOMBREREF": "CENTRO PSIQUIATRICO BENITO MENNI", "ESTECONOMI": "INTERNACION DE ENFERMOS MENTALES", "CLASIFICAD": "85193", "DESCRIPCIO": "Servicios de centros terap‚uticos" }, "geometry": { "type": "Point", "coordinates": [ -63.228248250022645, -17.806068798839334 ] } },
{ "type": "Feature", "properties": { "COD_ICE": "06370", "DISTRITO": "11", "LUGAR": "CIUDAD SANTA CRUZ DE LA SIERRA", "BARRIO": "LOS CHOFERES", "UV": "UV-06", "NOMBREREF": "CEPAT - CENTRO ESPECIALIZADO EN PREVENCIàN Y ATENCIàN TERAPEUTICA", "ESTECONOMI": "SERVICIO DE ATENCION TERAPEUTICA", "CLASIFICAD": "85193", "DESCRIPCIO": "Servicios de centros terap‚uticos" }, "geometry": { "type": "Point", "coordinates": [ -63.168503113768729, -17.795760984430846 ] } },
{ "type": "Feature", "properties": { "COD_ICE": "02180", "DISTRITO": "11", "LUGAR": "CIUDAD SANTA CRUZ DE LA SIERRA", "BARRIO": "CASCO VIEJO", "UV": null, "NOMBREREF": "ALCOHOLICOS ANONIMOS", "ESTECONOMI": "TRATAMIENTO MEDICO", "CLASIFICAD": "85193", "DESCRIPCIO": "Servicios de centros terap‚uticos" }, "geometry": { "type": "Point", "coordinates": [ -63.184643477026619, -17.790347584968206 ] } },
{ "type": "Feature", "properties": { "COD_ICE": "01870", "DISTRITO": "02", "LUGAR": "CIUDAD SANTA CRUZ DE LA SIERRA", "BARRIO": "LAZARETO", "UV": "UV-21", "NOMBREREF": "CENTRO DE REHABILITACION MENTAL", "ESTECONOMI": "ATENCION EN MEDICINA Y SALUD MENTAL", "CLASIFICAD": "85193", "DESCRIPCIO": "Servicios de centros terap‚uticos" }, "geometry": { "type": "Point", "coordinates": [ -63.158800955479343, -17.782010759523089 ] } },
{ "type": "Feature", "properties": { "COD_ICE": "05970", "DISTRITO": "02", "LUGAR": "CIUDAD SANTA CRUZ DE LA SIERRA", "BARRIO": "JOSE GIL REYES", "UV": "UV-40", "NOMBREREF": "CERAGEM", "ESTECONOMI": "SERVICIO DE TERAPIA MEDICINAL", "CLASIFICAD": "85193", "DESCRIPCIO": "Servicios de centros terap‚uticos" }, "geometry": { "type": "Point", "coordinates": [ -63.150496963569225, -17.764758155514063 ] } },
{ "type": "Feature", "properties": { "COD_ICE": "05470", "DISTRITO": "02", "LUGAR": "CIUDAD SANTA CRUZ DE LA SIERRA", "BARRIO": "JOSE GIL REYES", "UV": "UV-40", "NOMBREREF": "CONSULTORIO PSICOLOGICO", "ESTECONOMI": "ATENCION DE CONSULTAS SOBRE COMPORTAMIENTO Y COGNICION", "CLASIFICAD": "85193", "DESCRIPCIO": "Servicios de centros terap‚uticos" }, "geometry": { "type": "Point", "coordinates": [ -63.15288535555068, -17.767298113955125 ] } },
{ "type": "Feature", "properties": { "COD_ICE": "03690", "DISTRITO": "02", "LUGAR": "CIUDAD SANTA CRUZ DE LA SIERRA", "BARRIO": null, "UV": "UV-16", "NOMBREREF": "CENTRO DE ESTIMULACION DE LOCOMOCION", "ESTECONOMI": "SERVICIOS DE ESTIMULACION PARA ANDAR", "CLASIFICAD": "85193", "DESCRIPCIO": "Servicios de centros terap‚uticos" }, "geometry": { "type": "Point", "coordinates": [ -63.170137805496132, -17.760441148909837 ] } },
{ "type": "Feature", "properties": { "COD_ICE": "02170", "DISTRITO": "02", "LUGAR": "CIUDAD SANTA CRUZ DE LA SIERRA", "BARRIO": "FLEIG", "UV": "UV-16", "NOMBREREF": "FISIO RELAX", "ESTECONOMI": "CENTRO DE FISIOTERAPIA", "CLASIFICAD": "85193", "DESCRIPCIO": "Servicios de centros terap‚uticos" }, "geometry": { "type": "Point", "coordinates": [ -63.169477423994131, -17.765199982399679 ] } },
{ "type": "Feature", "properties": { "COD_ICE": "03790", "DISTRITO": "02", "LUGAR": "CIUDAD SANTA CRUZ DE LA SIERRA", "BARRIO": "MUTUALISTA", "UV": "ET-3", "NOMBREREF": "CONSULTORIO PSICOLOGICO", "ESTECONOMI": "SERVICIO DE ATENCIàN PSICOLàGICA", "CLASIFICAD": "85193", "DESCRIPCIO": "Servicios de centros terap‚uticos" }, "geometry": { "type": "Point", "coordinates": [ -63.165331828964128, -17.760879329809335 ] } },
{ "type": "Feature", "properties": { "COD_ICE": "00210", "DISTRITO": "03", "LUGAR": "CIUDAD SANTA CRUZ DE LA SIERRA", "BARRIO": "EL TROMPILLO", "UV": "UV-25", "NOMBREREF": "FISIOTODO", "ESTECONOMI": "SERVICIOS DE FISIOTERAPIA Y REHABILITACION", "CLASIFICAD": "85193", "DESCRIPCIO": "Servicios de centros terap‚uticos" }, "geometry": { "type": "Point", "coordinates": [ -63.172729695261978, -17.798850515152928 ] } },
{ "type": "Feature", "properties": { "COD_ICE": "00930", "DISTRITO": "03", "LUGAR": "CIUDAD SANTA CRUZ DE LA SIERRA", "BARRIO": "EL TROMPILLO", "UV": "UV-25", "NOMBREREF": "CENTRO TERAPEUTICO INTEGRAL LA CASA DE LA TIA", "ESTECONOMI": "SERVICIO DE FISIOTERAPIA", "CLASIFICAD": "85193", "DESCRIPCIO": "Servicios de centros terap‚uticos" }, "geometry": { "type": "Point", "coordinates": [ -63.170721239729225, -17.803507205109675 ] } },
{ "type": "Feature", "properties": { "COD_ICE": "00750", "DISTRITO": "04", "LUGAR": "CIUDAD SANTA CRUZ DE LA SIERRA", "BARRIO": "RAMAFA", "UV": "UV-27", "NOMBREREF": "CENTRO RAFHAKINEF", "ESTECONOMI": "SERVICIO DE REHABILITACION FISICA INTEGRAL", "CLASIFICAD": "85193", "DESCRIPCIO": "Servicios de centros terap‚uticos" }, "geometry": { "type": "Point", "coordinates": [ -63.183718810720954, -17.804486104880688 ] } },
{ "type": "Feature", "properties": { "COD_ICE": "00300", "DISTRITO": "04", "LUGAR": "CIUDAD SANTA CRUZ DE LA SIERRA", "BARRIO": "RAMAFA", "UV": "UV-27", "NOMBREREF": "CENTRO DE PSICOTERAPIA ENERGY", "ESTECONOMI": "SERVICIO MEDICO DE PSICOTERAPIA", "CLASIFICAD": "85193", "DESCRIPCIO": "Servicios de centros terap‚uticos" }, "geometry": { "type": "Point", "coordinates": [ -63.184344639768447, -17.801502775304041 ] } },
{ "type": "Feature", "properties": { "COD_ICE": "00500", "DISTRITO": "04", "LUGAR": "CIUDAD SANTA CRUZ DE LA SIERRA", "BARRIO": "URBARI", "UV": "UV-29", "NOMBREREF": "CENTRO TERAPEUTICO INTEGRAL LABERINTOS", "ESTECONOMI": "SERVICIO DE CONSULTAS Y TRATAMIENTOS SPICOPEDAGOGICOS", "CLASIFICAD": "85193", "DESCRIPCIO": "Servicios de centros terap‚uticos" }, "geometry": { "type": "Point", "coordinates": [ -63.195046074620997, -17.79724698836068 ] } },
{ "type": "Feature", "properties": { "COD_ICE": "07210", "DISTRITO": "05", "LUGAR": "CIUDAD SANTA CRUZ DE LA SIERRA", "BARRIO": "NUEVA ESPERANZA", "UV": "UV-71", "NOMBREREF": "NATURISTA LA SALUD", "ESTECONOMI": "TRATAMIENTO A BA¥OS DE VAPOR", "CLASIFICAD": "85193", "DESCRIPCIO": "Servicios de centros terap‚uticos" }, "geometry": { "type": "Point", "coordinates": [ -63.147788950655936, -17.741989974663852 ] } },
{ "type": "Feature", "properties": { "COD_ICE": "08970", "DISTRITO": "08", "LUGAR": "CIUDAD SANTA CRUZ DE LA SIERRA", "BARRIO": "URBANIZACION LAS ORQUIDEAS", "UV": "UV-163", "NOMBREREF": "CONSULTORIO PSICOLOGICO", "ESTECONOMI": "SERVICIOS DE CONSULTORIA PSICOLOGICO", "CLASIFICAD": "85193", "DESCRIPCIO": "Servicios de centros terap‚uticos" }, "geometry": { "type": "Point", "coordinates": [ -63.124884747801879, -17.839247207848736 ] } },
{ "type": "Feature", "properties": { "COD_ICE": "09750", "DISTRITO": "09", "LUGAR": "CIUDAD SANTA CRUZ DE LA SIERRA", "BARRIO": "LA AMISTAD", "UV": "UV-186", "NOMBREREF": "CENTRO DE REHABILITACION", "ESTECONOMI": null, "CLASIFICAD": "85193", "DESCRIPCIO": "Servicios de centros terap‚uticos" }, "geometry": { "type": "Point", "coordinates": [ -63.197985575502777, -17.870416715189513 ] } }
]
}
