{
"type": "FeatureCollection",
"crs": { "type": "name", "properties": { "name": "urn:ogc:def:crs:OGC:1.3:CRS84" } },
                                                                                                                                  
"features": [
{ "type": "Feature", "properties": { "nombre": "Lagos", "ORIG_FID": 0 }, "geometry": { "type": "Point", "coordinates": [ -67.251267637487672, -20.202585626591997 ] } },
{ "type": "Feature", "properties": { "nombre": "Beni", "mujer_urb": 154169.000000, "hombre_urb": 154521.000000, "total_urb": 308690.000000, "mujer_ru": 50319.000000, "hombre_ru": 62999.000000, "total_ru": 113318.000000, "mujer": 204488.000000, "hombre": 217520.000000, "total": 422008.000000 , "ORIG_FID": 1 }, "geometry": { "type": "Point", "coordinates": [ -65.272554121559551, -13.784226047315371 ] } },
{ "type": "Feature", "properties": { "nombre": "Chuquisaca", "mujer_urb": 148227.000000, "hombre_urb": 134896.000000, "total_urb": 283123.000000, "mujer_ru": 147246.000000, "hombre_ru": 150978.000000, "total_ru": 298224.000000, "mujer": 295473.000000, "hombre": 285874.000000, "total": 581347.000000 , "ORIG_FID": 2 }, "geometry": { "type": "Point", "coordinates": [ -64.276599812513041, -20.046186481099085 ] } },
{ "type": "Feature", "properties": { "nombre": "Cochabamba", "mujer_urb": 620734.000000, "hombre_urb": 580178.000000, "total_urb": 1200912.000000, "mujer_ru": 272639.000000, "hombre_ru": 289210.000000, "total_ru": 561849.000000, "mujer": 893373.000000, "hombre": 869388.000000, "total": 1762761.000000 , "ORIG_FID": 3 }, "geometry": { "type": "Point", "coordinates": [ -65.636034291705073, -17.235487042703937 ] } },
{ "type": "Feature", "properties": { "nombre": "La Paz", "mujer_urb": 937904.000000, "hombre_urb": 876244.000000, "total_urb": 1814148.000000, "mujer_ru": 437473.000000, "hombre_ru": 467723.000000, "total_ru": 905196.000000, "mujer": 1375377.000000, "hombre": 1343967.000000, "total": 2719344.000000 , "ORIG_FID": 4 }, "geometry": { "type": "Point", "coordinates": [ -68.10483558104346, -15.210459260468099 ] } },
{ "type": "Feature", "properties": { "nombre": "Oruro", "mujer_urb": 164204.000000, "hombre_urb": 152553.000000, "total_urb": 316757.000000, "mujer_ru": 85565.000000, "hombre_ru": 92265.000000, "total_ru": 177830.000000, "mujer": 249769.000000, "hombre": 244818.000000, "total": 494587.000000 , "ORIG_FID": 5 }, "geometry": { "type": "Point", "coordinates": [ -68.378282012988961, -18.418411513468811 ] } },
{ "type": "Feature", "properties": { "nombre": "Pando", "mujer_urb": 25821.000000, "hombre_urb": 28010.000000, "total_urb": 53831.000000, "mujer_ru": 24864.000000, "hombre_ru": 31741.000000, "total_ru": 56605.000000, "mujer": 50685.000000, "hombre": 59751.000000, "total": 110436.000000 , "ORIG_FID": 6 }, "geometry": { "type": "Point", "coordinates": [ -67.430778961367707, -11.317284447344946 ] } },
{ "type": "Feature", "properties": { "nombre": "Potosi", "mujer_urb": 175768.000000, "hombre_urb": 160644.000000, "total_urb": 336412.000000, "mujer_ru": 241503.000000, "hombre_ru": 250178.000000, "total_ru": 491681.000000, "mujer": 417271.000000, "hombre": 410822.000000, "total": 828093.000000 , "ORIG_FID": 7 }, "geometry": { "type": "Point", "coordinates": [ -66.744130342272911, -20.847306444713013 ] } },
{ "type": "Feature", "properties": { "nombre": "Santa Cruz", "mujer_urb": 1086131.000000, "hombre_urb": 1074448.000000, "total_urb": 2160579.000000, "mujer_ru": 225442.000000, "hombre_ru": 271741.000000, "total_ru": 497183.000000, "mujer": 1311573.000000, "hombre": 1346189.000000, "total": 2657762.000000 , "ORIG_FID": 8 }, "geometry": { "type": "Point", "coordinates": [ -61.521775396877786, -17.214489483910484 ] } },
{ "type": "Feature", "properties": { "nombre": "Tarija", "mujer_urb": 161180.000000, "hombre_urb": 153330.000000, "total_urb": 314510.000000, "mujer_ru": 81220.000000, "hombre_ru": 87788.000000, "total_ru": 169008.000000, "mujer": 242400.000000, "hombre": 241118.000000, "total": 483518.000000 , "ORIG_FID": 9 }, "geometry": { "type": "Point", "coordinates": [ -63.840288764628951, -21.50157298176714 ] } }
]
}
