{
"type": "FeatureCollection",
"crs": { "type": "name", "properties": { "name": "urn:ogc:def:crs:OGC:1.3:CRS84" } },
                                                                                                                                  
"features": [
{ "type": "Feature", "properties": { "COD_ICE": "01460", "DISTRITO": "01", "LUGAR": "CIUDAD SANTA CRUZ DE LA SIERRA", "BARRIO": "SANTA ROSITA", "UV": "UV-30", "NOMBREREF": "MODULO POLICIAL", "ESTECONOMI": null, "CLASIFICAD": "75232", "DESCRIPCIO": "Actividades de servicios de orden p£blico y de seguridad" }, "geometry": { "type": "Point", "coordinates": [ -63.19955783673921, -17.787750971882545 ] } },
{ "type": "Feature", "properties": { "COD_ICE": "07450", "DISTRITO": "01", "LUGAR": "CIUDAD SANTA CRUZ DE LA SIERRA", "BARRIO": "LOS CHINOS", "UV": "UV-56", "NOMBREREF": "POLICIA NACIONAL", "ESTECONOMI": "NULL", "CLASIFICAD": "75232", "DESCRIPCIO": "Actividades de servicios de orden p£blico y de seguridad" }, "geometry": { "type": "Point", "coordinates": [ -63.213353313410956, -17.776712743616518 ] } },
{ "type": "Feature", "properties": { "COD_ICE": "05290", "DISTRITO": "01", "LUGAR": "CIUDAD SANTA CRUZ DE LA SIERRA", "BARRIO": "URBANIZACION LA MADRE", "UV": "UV-54", "NOMBREREF": "PUESTO POLICIAL. CENTRO DE SEGURIDAD CIUDADANA", "ESTECONOMI": null, "CLASIFICAD": "75232", "DESCRIPCIO": "Actividades de servicios de orden p£blico y de seguridad" }, "geometry": { "type": "Point", "coordinates": [ -63.211155866716368, -17.787097830774439 ] } },
{ "type": "Feature", "properties": { "COD_ICE": "02810", "DISTRITO": "01", "LUGAR": "CIUDAD SANTA CRUZ DE LA SIERRA", "BARRIO": "4 DE NOVIEMBRE", "UV": "ET-17", "NOMBREREF": "PUESTO POLICIAL DISTRITO CUATRO", "ESTECONOMI": null, "CLASIFICAD": "75232", "DESCRIPCIO": "Actividades de servicios de orden p£blico y de seguridad" }, "geometry": { "type": "Point", "coordinates": [ -63.204561822949614, -17.782671332927936 ] } },
{ "type": "Feature", "properties": { "COD_ICE": "08980", "DISTRITO": "01", "LUGAR": "CIUDAD SANTA CRUZ DE LA SIERRA", "BARRIO": "URUBO", "UV": null, "NOMBREREF": "GACIP", "ESTECONOMI": "GRUPO DE ASISTENCIA CIVIL POLICIAL", "CLASIFICAD": "75232", "DESCRIPCIO": "Actividades de servicios de orden p£blico y de seguridad" }, "geometry": { "type": "Point", "coordinates": [ -63.20078992522356, -17.755070539320513 ] } },
{ "type": "Feature", "properties": { "COD_ICE": "00100", "DISTRITO": "01", "LUGAR": "CIUDAD SANTA CRUZ DE LA SIERRA", "BARRIO": "MACDONALD", "UV": "UV-36", "NOMBREREF": "COMANDO DEPARTAMENTAL DE LA POLICIA", "ESTECONOMI": null, "CLASIFICAD": "75232", "DESCRIPCIO": "Actividades de servicios de orden p£blico y de seguridad" }, "geometry": { "type": "Point", "coordinates": [ -63.184442341060617, -17.770325258130281 ] } },
{ "type": "Feature", "properties": { "COD_ICE": "01030", "DISTRITO": "01", "LUGAR": "CIUDAD SANTA CRUZ DE LA SIERRA", "BARRIO": "EQUIPETROL", "UV": "UV-33", "NOMBREREF": "PUESTO POLICIAL FUNDACIONE STAS VIVO", "ESTECONOMI": null, "CLASIFICAD": "75232", "DESCRIPCIO": "Actividades de servicios de orden p£blico y de seguridad" }, "geometry": { "type": "Point", "coordinates": [ -63.194277862269523, -17.767843114666469 ] } },
{ "type": "Feature", "properties": { "COD_ICE": "06870", "DISTRITO": "01", "LUGAR": "CIUDAD SANTA CRUZ DE LA SIERRA", "BARRIO": "VILLA BRIGIDA", "UV": "UV-59", "NOMBREREF": "POLICIA BOLIVIANA", "ESTECONOMI": null, "CLASIFICAD": "75232", "DESCRIPCIO": "Actividades de servicios de orden p£blico y de seguridad" }, "geometry": { "type": "Point", "coordinates": [ -63.193703544387049, -17.754736587693156 ] } },
{ "type": "Feature", "properties": { "COD_ICE": "09210", "DISTRITO": "10", "LUGAR": "CIUDAD SANTA CRUZ DE LA SIERRA", "BARRIO": "TIERRAS NUEVAS", "UV": "UV_135", "NOMBREREF": "POLICIA BOLIVIANA DE CONCILIACION CIUDADANA", "ESTECONOMI": null, "CLASIFICAD": "75232", "DESCRIPCIO": "Actividades de servicios de orden p£blico y de seguridad" }, "geometry": { "type": "Point", "coordinates": [ -63.215108843165908, -17.849424817553885 ] } },
{ "type": "Feature", "properties": { "COD_ICE": "05090", "DISTRITO": "10", "LUGAR": "CIUDAD SANTA CRUZ DE LA SIERRA", "BARRIO": "EL BAJIO", "UV": "UV_127", "NOMBREREF": "PUESTO POLICIAL", "ESTECONOMI": null, "CLASIFICAD": "75232", "DESCRIPCIO": "Actividades de servicios de orden p£blico y de seguridad" }, "geometry": { "type": "Point", "coordinates": [ -63.226466632450084, -17.827078462514596 ] } },
{ "type": "Feature", "properties": { "COD_ICE": "07800", "DISTRITO": "10", "LUGAR": "CIUDAD SANTA CRUZ DE LA SIERRA", "BARRIO": "BEREA", "UV": "UV_138", "NOMBREREF": "MODULO POLICIAL 17 Y MEDIO", "ESTECONOMI": null, "CLASIFICAD": "75232", "DESCRIPCIO": "Actividades de servicios de orden p£blico y de seguridad" }, "geometry": { "type": "Point", "coordinates": [ -63.238631770852059, -17.829573086050544 ] } },
{ "type": "Feature", "properties": { "COD_ICE": "05270", "DISTRITO": "11", "LUGAR": "CIUDAD SANTA CRUZ DE LA SIERRA", "BARRIO": "MILITAR", "UV": "UV-08", "NOMBREREF": "PUESTO POLICIAL", "ESTECONOMI": null, "CLASIFICAD": "75232", "DESCRIPCIO": "Actividades de servicios de orden p£blico y de seguridad" }, "geometry": { "type": "Point", "coordinates": [ -63.183732712042683, -17.79642839663989 ] } },
{ "type": "Feature", "properties": { "COD_ICE": "00720", "DISTRITO": "11", "LUGAR": "CIUDAD SANTA CRUZ DE LA SIERRA", "BARRIO": "CASCO VIEJO", "UV": "UV-II", "NOMBREREF": "PUESTO POLICIAL DEL PARQUE EL ARENAL", "ESTECONOMI": null, "CLASIFICAD": "75232", "DESCRIPCIO": "Actividades de servicios de orden p£blico y de seguridad" }, "geometry": { "type": "Point", "coordinates": [ -63.180519199818505, -17.777997647274013 ] } },
{ "type": "Feature", "properties": { "COD_ICE": "02380", "DISTRITO": "11", "LUGAR": "CIUDAD SANTA CRUZ DE LA SIERRA", "BARRIO": "CASCO VIEJO", "UV": "UV-8", "NOMBREREF": "SUSTANCIA CONTROLADAS", "ESTECONOMI": "SERVICIO DE SEGIMIENTO DE LA 1008", "CLASIFICAD": "75232", "DESCRIPCIO": "Actividades de servicios de orden p£blico y de seguridad" }, "geometry": { "type": "Point", "coordinates": [ -63.181890367258475, -17.777297371941788 ] } },
{ "type": "Feature", "properties": { "COD_ICE": "06040", "DISTRITO": "11", "LUGAR": "CIUDAD SANTA CRUZ DE LA SIERRA", "BARRIO": "RAMADA", "UV": "UV-10", "NOMBREREF": "POLICIA BOLIVIANA UNIDAD TACTICA DE OPERACIUONES POLICIALES UTOP", "ESTECONOMI": null, "CLASIFICAD": "75232", "DESCRIPCIO": "Actividades de servicios de orden p£blico y de seguridad" }, "geometry": { "type": "Point", "coordinates": [ -63.191293885343676, -17.796356417748967 ] } },
{ "type": "Feature", "properties": { "COD_ICE": "03100", "DISTRITO": "11", "LUGAR": "CIUDAD SANTA CRUZ DE LA SIERRA", "BARRIO": "CASCO VIEJO", "UV": null, "NOMBREREF": "COMISARIA DE CONCILACION CIUDADANA Y FAMILIAR NUMERO DOS EX TERMINAL", "ESTECONOMI": null, "CLASIFICAD": "75232", "DESCRIPCIO": "Actividades de servicios de orden p£blico y de seguridad" }, "geometry": { "type": "Point", "coordinates": [ -63.186703378533657, -17.792269617801779 ] } },
{ "type": "Feature", "properties": { "COD_ICE": "03450", "DISTRITO": "11", "LUGAR": "CIUDAD SANTA CRUZ DE LA SIERRA", "BARRIO": "MAQUINA VIEJA", "UV": "UV-1", "NOMBREREF": "UNIDAD DE VICTIMAS ESPECIALES DE LA POLICIA BOLIVIANA", "ESTECONOMI": null, "CLASIFICAD": "75232", "DESCRIPCIO": "Actividades de servicios de orden p£blico y de seguridad" }, "geometry": { "type": "Point", "coordinates": [ -63.177967029971121, -17.773888669521689 ] } },
{ "type": "Feature", "properties": { "COD_ICE": "00110", "DISTRITO": "11", "LUGAR": "CIUDAD SANTA CRUZ DE LA SIERRA", "BARRIO": "CASCO VIEJO", "UV": "UV- CENTRO", "NOMBREREF": "POLICIA TURISTICA GOBIERNO DEPARTAMENTAL DE SANTA CRUZ", "ESTECONOMI": null, "CLASIFICAD": "75232", "DESCRIPCIO": "Actividades de servicios de orden p£blico y de seguridad" }, "geometry": { "type": "Point", "coordinates": [ -63.182209826225652, -17.782512695606467 ] } },
{ "type": "Feature", "properties": { "COD_ICE": "00990", "DISTRITO": "11", "LUGAR": "CIUDAD SANTA CRUZ DE LA SIERRA", "BARRIO": "CASCO VIEJO", "UV": null, "NOMBREREF": "POLICIA BOLIVIANA CENTRO DE OLIVO DE GGJJOO", "ESTECONOMI": null, "CLASIFICAD": "75232", "DESCRIPCIO": "Actividades de servicios de orden p£blico y de seguridad" }, "geometry": { "type": "Point", "coordinates": [ -63.186500976584163, -17.781312719554414 ] } },
{ "type": "Feature", "properties": { "COD_ICE": "02220", "DISTRITO": "12", "LUGAR": "CIUDAD SANTA CRUZ DE LA SIERRA", "BARRIO": null, "UV": null, "NOMBREREF": "CENTRO DE REHABILITACION SANTA CRUZ PALMASOLA", "ESTECONOMI": null, "CLASIFICAD": "75232", "DESCRIPCIO": "Actividades de servicios de orden p£blico y de seguridad" }, "geometry": { "type": "Point", "coordinates": [ -63.18174794763199, -17.874014452680477 ] } },
{ "type": "Feature", "properties": { "COD_ICE": "07600", "DISTRITO": "12", "LUGAR": "CIUDAD SANTA CRUZ DE LA SIERRA", "BARRIO": "PERCY FERNANDEZ", "UV": "UV-167", "NOMBREREF": "CENTRO MUNICIPAL DE POLICIA", "ESTECONOMI": null, "CLASIFICAD": "75232", "DESCRIPCIO": "Actividades de servicios de orden p£blico y de seguridad" }, "geometry": { "type": "Point", "coordinates": [ -63.155471995369389, -17.84006995207157 ] } },
{ "type": "Feature", "properties": { "COD_ICE": "03030", "DISTRITO": "14", "LUGAR": "CIUDAD SANTA CRUZ DE LA SIERRA", "BARRIO": "TOBOROCHI 1", "UV": "UV-204", "NOMBREREF": "POLICIA BOLIVIANA TOBOROCHI", "ESTECONOMI": null, "CLASIFICAD": "75232", "DESCRIPCIO": "Actividades de servicios de orden p£blico y de seguridad" }, "geometry": { "type": "Point", "coordinates": [ -63.104251460766051, -17.731686407558669 ] } },
{ "type": "Feature", "properties": { "COD_ICE": "02090", "DISTRITO": "02", "LUGAR": "CIUDAD SANTA CRUZ DE LA SIERRA", "BARRIO": "LA SANTA CRUZ", "UV": "UV-15", "NOMBREREF": "PUESTO POLICIAL", "ESTECONOMI": null, "CLASIFICAD": "75232", "DESCRIPCIO": "Actividades de servicios de orden p£blico y de seguridad" }, "geometry": { "type": "Point", "coordinates": [ -63.179378847079711, -17.765264269170181 ] } },
{ "type": "Feature", "properties": { "COD_ICE": "01360", "DISTRITO": "02", "LUGAR": "CIUDAD SANTA CRUZ DE LA SIERRA", "BARRIO": "LOS ANGELES", "UV": "UV-18", "NOMBREREF": "POLICIA BOLIVIANA DIRECCION DEPARTAMENTAL INTERPOL", "ESTECONOMI": null, "CLASIFICAD": "75232", "DESCRIPCIO": "Actividades de servicios de orden p£blico y de seguridad" }, "geometry": { "type": "Point", "coordinates": [ -63.164966533239095, -17.769228734731296 ] } },
{ "type": "Feature", "properties": { "COD_ICE": "01460", "DISTRITO": "02", "LUGAR": "CIUDAD SANTA CRUZ DE LA SIERRA", "BARRIO": "LAZARETO", "UV": "UV-21", "NOMBREREF": "PUESTO POLICIAL", "ESTECONOMI": null, "CLASIFICAD": "75232", "DESCRIPCIO": "Actividades de servicios de orden p£blico y de seguridad" }, "geometry": { "type": "Point", "coordinates": [ -63.16029204621735, -17.782807251971427 ] } },
{ "type": "Feature", "properties": { "COD_ICE": "07610", "DISTRITO": "02", "LUGAR": "CIUDAD SANTA CRUZ DE LA SIERRA", "BARRIO": "LA CHACARILLA", "UV": "UV-41", "NOMBREREF": "PUESTO POLICIAL", "ESTECONOMI": null, "CLASIFICAD": "75232", "DESCRIPCIO": "Actividades de servicios de orden p£blico y de seguridad" }, "geometry": { "type": "Point", "coordinates": [ -63.148424553439774, -17.774474731070672 ] } },
{ "type": "Feature", "properties": { "COD_ICE": "02000", "DISTRITO": "03", "LUGAR": "CIUDAD SANTA CRUZ DE LA SIERRA", "BARRIO": "ESTACION ARGENTINA", "UV": "UV-44", "NOMBREREF": "PUESTO POLICIAL DE CONCILIACION CIUDADANA", "ESTECONOMI": "NULL", "CLASIFICAD": "75232", "DESCRIPCIO": "Actividades de servicios de orden p£blico y de seguridad" }, "geometry": { "type": "Point", "coordinates": [ -63.154925129540288, -17.800264509829301 ] } },
{ "type": "Feature", "properties": { "COD_ICE": "00160", "DISTRITO": "03", "LUGAR": "CIUDAD SANTA CRUZ DE LA SIERRA", "BARRIO": "PETROLERO SUR", "UV": "UV-24", "NOMBREREF": "POLICIA BOLIVIANA BATALLON DE SEGURIDAD SANTA CRUZ BOLIVIA", "ESTECONOMI": null, "CLASIFICAD": "75232", "DESCRIPCIO": "Actividades de servicios de orden p£blico y de seguridad" }, "geometry": { "type": "Point", "coordinates": [ -63.16631610672453, -17.796631785578391 ] } },
{ "type": "Feature", "properties": { "COD_ICE": "02020", "DISTRITO": "03", "LUGAR": "CIUDAD SANTA CRUZ DE LA SIERRA", "BARRIO": "ESTACION ARGENTINA", "UV": "UV-44", "NOMBREREF": "CENTRO DE MONITOREO", "ESTECONOMI": "OFICINAS DE SEGURIDAD CIUDADANA (POLICIA)", "CLASIFICAD": "75232", "DESCRIPCIO": "Actividades de servicios de orden p£blico y de seguridad" }, "geometry": { "type": "Point", "coordinates": [ -63.155583721609659, -17.803068386863949 ] } },
{ "type": "Feature", "properties": { "COD_ICE": "03670", "DISTRITO": "03", "LUGAR": "CIUDAD SANTA CRUZ DE LA SIERRA", "BARRIO": "CA¥ADA DEL CARMEN", "UV": "UV-92", "NOMBREREF": "COMISARIA CA¥ADA EL CARMEN", "ESTECONOMI": null, "CLASIFICAD": "75232", "DESCRIPCIO": "Actividades de servicios de orden p£blico y de seguridad" }, "geometry": { "type": "Point", "coordinates": [ -63.152319263710019, -17.810172906659446 ] } },
{ "type": "Feature", "properties": { "COD_ICE": "00810", "DISTRITO": "03", "LUGAR": "CIUDAD SANTA CRUZ DE LA SIERRA", "BARRIO": "VICTORIA", "UV": "UV-23", "NOMBREREF": "GRUPO GIO POLICIA CIVIL", "ESTECONOMI": null, "CLASIFICAD": "75232", "DESCRIPCIO": "Actividades de servicios de orden p£blico y de seguridad" }, "geometry": { "type": "Point", "coordinates": [ -63.163217372402727, -17.790015200501369 ] } },
{ "type": "Feature", "properties": { "COD_ICE": "04560", "DISTRITO": "03", "LUGAR": "CIUDAD SANTA CRUZ DE LA SIERRA", "BARRIO": "OLENDER", "UV": "UV-91A", "NOMBREREF": "EX OFICINA DE POLICIA DEL BARRIO OLENDER", "ESTECONOMI": null, "CLASIFICAD": "75232", "DESCRIPCIO": "Actividades de servicios de orden p£blico y de seguridad" }, "geometry": { "type": "Point", "coordinates": [ -63.145742588865936, -17.805822714155109 ] } },
{ "type": "Feature", "properties": { "COD_ICE": "01040", "DISTRITO": "03", "LUGAR": "CIUDAD SANTA CRUZ DE LA SIERRA", "BARRIO": "NUEVO BARRIO LINDO", "UV": "ED-1", "NOMBREREF": "POLICIA BOLIVIANA TRANS.", "ESTECONOMI": null, "CLASIFICAD": "75232", "DESCRIPCIO": "Actividades de servicios de orden p£blico y de seguridad" }, "geometry": { "type": "Point", "coordinates": [ -63.159792099889195, -17.788699253511957 ] } },
{ "type": "Feature", "properties": { "COD_ICE": "00340", "DISTRITO": "03", "LUGAR": "CIUDAD SANTA CRUZ DE LA SIERRA", "BARRIO": "PETROLERO SUR", "UV": "UV-24", "NOMBREREF": "DIPROVE POLICIA NACIONAL", "ESTECONOMI": "NULL", "CLASIFICAD": "75232", "DESCRIPCIO": "Actividades de servicios de orden p£blico y de seguridad" }, "geometry": { "type": "Point", "coordinates": [ -63.163667066030818, -17.800195545756733 ] } },
{ "type": "Feature", "properties": { "COD_ICE": "00280", "DISTRITO": "04", "LUGAR": "CIUDAD SANTA CRUZ DE LA SIERRA", "BARRIO": "EL TROMPILLO", "UV": "UV-26", "NOMBREREF": "POLICIA BOLIVIANA UNIDAD OPERARTIVA DE BOMBEROS", "ESTECONOMI": null, "CLASIFICAD": "75232", "DESCRIPCIO": "Actividades de servicios de orden p£blico y de seguridad" }, "geometry": { "type": "Point", "coordinates": [ -63.17598093349563, -17.806159845505999 ] } },
{ "type": "Feature", "properties": { "COD_ICE": "05060", "DISTRITO": "04", "LUGAR": "CIUDAD SANTA CRUZ DE LA SIERRA", "BARRIO": "VILLA WARNES", "UV": "UV-50", "NOMBREREF": "EX COMISARÖA Y PUESTO POLÖCIAL DEL BARRIO WARNES", "ESTECONOMI": "NULL", "CLASIFICAD": "75232", "DESCRIPCIO": "Actividades de servicios de orden p£blico y de seguridad" }, "geometry": { "type": "Point", "coordinates": [ -63.195663901258072, -17.815144792554751 ] } },
{ "type": "Feature", "properties": { "COD_ICE": "02910", "DISTRITO": "04", "LUGAR": "CIUDAD SANTA CRUZ DE LA SIERRA", "BARRIO": "AERONAUTICO", "UV": "ET-10", "NOMBREREF": "POLICIA BOLIVIANA FUERZA ESPECIAL DE LUCHA CONTRA  LA VIOLENCIA", "ESTECONOMI": null, "CLASIFICAD": "75232", "DESCRIPCIO": "Actividades de servicios de orden p£blico y de seguridad" }, "geometry": { "type": "Point", "coordinates": [ -63.181806498153733, -17.812874403100224 ] } },
{ "type": "Feature", "properties": { "COD_ICE": "02910", "DISTRITO": "04", "LUGAR": "CIUDAD SANTA CRUZ DE LA SIERRA", "BARRIO": "AERONAUTICO", "UV": "ET-10", "NOMBREREF": "POLICIA BOLIVIANA FUERZA ESPECIAL DE LUCHA CONTRA  LA VIOLENCIA", "ESTECONOMI": null, "CLASIFICAD": "75232", "DESCRIPCIO": "Actividades de servicios de orden p£blico y de seguridad" }, "geometry": { "type": "Point", "coordinates": [ -63.181811041023138, -17.813461512300421 ] } },
{ "type": "Feature", "properties": { "COD_ICE": "02910", "DISTRITO": "04", "LUGAR": "CIUDAD SANTA CRUZ DE LA SIERRA", "BARRIO": "AERONAUTICO", "UV": "ET-10", "NOMBREREF": "POLICIA BOLIVIANA FUERZA ESPECIAL DE LUCHA CONTRA  LA VIOLENCIA", "ESTECONOMI": null, "CLASIFICAD": "75232", "DESCRIPCIO": "Actividades de servicios de orden p£blico y de seguridad" }, "geometry": { "type": "Point", "coordinates": [ -63.181380027014463, -17.813330788637483 ] } },
{ "type": "Feature", "properties": { "COD_ICE": "03930", "DISTRITO": "04", "LUGAR": "CIUDAD SANTA CRUZ DE LA SIERRA", "BARRIO": "LA MORITA", "UV": "UV-49", "NOMBREREF": "POLICIA BOLIVIANA", "ESTECONOMI": null, "CLASIFICAD": "75232", "DESCRIPCIO": "Actividades de servicios de orden p£blico y de seguridad" }, "geometry": { "type": "Point", "coordinates": [ -63.190110823996889, -17.815087114698137 ] } },
{ "type": "Feature", "properties": { "COD_ICE": "00280", "DISTRITO": "04", "LUGAR": "CIUDAD SANTA CRUZ DE LA SIERRA", "BARRIO": "EL TROMPILLO", "UV": "UV-26", "NOMBREREF": "POLICIA BOLIVIANA UNIDAD OPERARTIVA DE BOMBEROS", "ESTECONOMI": null, "CLASIFICAD": "75232", "DESCRIPCIO": "Actividades de servicios de orden p£blico y de seguridad" }, "geometry": { "type": "Point", "coordinates": [ -63.174936264296015, -17.800990055111996 ] } },
{ "type": "Feature", "properties": { "COD_ICE": "01560", "DISTRITO": "05", "LUGAR": "CIUDAD SANTA CRUZ DE LA SIERRA", "BARRIO": "UCEBOL", "UV": "UV-72", "NOMBREREF": "POLICIA BOLIVIANA BRISEDE", "ESTECONOMI": null, "CLASIFICAD": "75232", "DESCRIPCIO": "Actividades de servicios de orden p£blico y de seguridad" }, "geometry": { "type": "Point", "coordinates": [ -63.168287590340498, -17.730245250577358 ] } },
{ "type": "Feature", "properties": { "COD_ICE": "01720", "DISTRITO": "05", "LUGAR": "CIUDAD SANTA CRUZ DE LA SIERRA", "BARRIO": "MAGISTERIO NORTE", "UV": "UV-77", "NOMBREREF": "POLICIA BOLIVIANA PATRULLA CAMINERA", "ESTECONOMI": null, "CLASIFICAD": "75232", "DESCRIPCIO": "Actividades de servicios de orden p£blico y de seguridad" }, "geometry": { "type": "Point", "coordinates": [ -63.162199481848468, -17.717871186087265 ] } },
{ "type": "Feature", "properties": { "COD_ICE": "02710", "DISTRITO": "05", "LUGAR": "CIUDAD SANTA CRUZ DE LA SIERRA", "BARRIO": "SAN JORGE", "UV": "UV-77", "NOMBREREF": "PUESTO POLOCIAL", "ESTECONOMI": null, "CLASIFICAD": "75232", "DESCRIPCIO": "Actividades de servicios de orden p£blico y de seguridad" }, "geometry": { "type": "Point", "coordinates": [ -63.158763263703847, -17.725237177954721 ] } },
{ "type": "Feature", "properties": { "COD_ICE": "05190", "DISTRITO": "05", "LUGAR": "CIUDAD SANTA CRUZ DE LA SIERRA", "BARRIO": "MAGISTERIO", "UV": "UV-67", "NOMBREREF": "E.S.B.A.P.O.L. ESCUELA BASICA POLICIAL", "ESTECONOMI": null, "CLASIFICAD": "75232", "DESCRIPCIO": "Actividades de servicios de orden p£blico y de seguridad" }, "geometry": { "type": "Point", "coordinates": [ -63.162466510967327, -17.750853736558927 ] } },
{ "type": "Feature", "properties": { "COD_ICE": "06480", "DISTRITO": "05", "LUGAR": "CIUDAD SANTA CRUZ DE LA SIERRA", "BARRIO": "CORDECRUZ", "UV": "UV-67", "NOMBREREF": "POLICIA NACIONAL DIASTRITO 5", "ESTECONOMI": null, "CLASIFICAD": "75232", "DESCRIPCIO": "Actividades de servicios de orden p£blico y de seguridad" }, "geometry": { "type": "Point", "coordinates": [ -63.157727931298929, -17.751858310734029 ] } },
{ "type": "Feature", "properties": { "COD_ICE": "04020", "DISTRITO": "05", "LUGAR": "CIUDAD SANTA CRUZ DE LA SIERRA", "BARRIO": "WILLY BENDECK", "UV": "UV-70", "NOMBREREF": "UNIDAD POLICIAL", "ESTECONOMI": null, "CLASIFICAD": "75232", "DESCRIPCIO": "Actividades de servicios de orden p£blico y de seguridad" }, "geometry": { "type": "Point", "coordinates": [ -63.159866768650396, -17.742251665147748 ] } },
{ "type": "Feature", "properties": { "COD_ICE": "06220", "DISTRITO": "05", "LUGAR": "CIUDAD SANTA CRUZ DE LA SIERRA", "BARRIO": "LOS TUSEQUIS", "UV": "UV-75", "NOMBREREF": "POLICIA BOLIVIANA DP 8", "ESTECONOMI": null, "CLASIFICAD": "75232", "DESCRIPCIO": "Actividades de servicios de orden p£blico y de seguridad" }, "geometry": { "type": "Point", "coordinates": [ -63.148061992030954, -17.734431886600849 ] } },
{ "type": "Feature", "properties": { "COD_ICE": "02480", "DISTRITO": "05", "LUGAR": "CIUDAD SANTA CRUZ DE LA SIERRA", "BARRIO": "FLORIDA", "UV": "UV-73", "NOMBREREF": "PUESTO POLICIAL", "ESTECONOMI": null, "CLASIFICAD": "75232", "DESCRIPCIO": "Actividades de servicios de orden p£blico y de seguridad" }, "geometry": { "type": "Point", "coordinates": [ -63.162662664818093, -17.728755543774117 ] } },
{ "type": "Feature", "properties": { "COD_ICE": "02720", "DISTRITO": "05", "LUGAR": "CIUDAD SANTA CRUZ DE LA SIERRA", "BARRIO": "SANTA ISABEL", "UV": "UV-72", "NOMBREREF": "CENTRO INTEGRAL DE SEGURIDAD CIUDADANA DM5", "ESTECONOMI": null, "CLASIFICAD": "75232", "DESCRIPCIO": "Actividades de servicios de orden p£blico y de seguridad" }, "geometry": { "type": "Point", "coordinates": [ -63.170877681618485, -17.726104108503492 ] } },
{ "type": "Feature", "properties": { "COD_ICE": "00460", "DISTRITO": "06", "LUGAR": "CIUDAD SANTA CRUZ DE LA SIERRA", "BARRIO": "MAGISTERIO SANTA MARÖA", "UV": "UV-196", "NOMBREREF": "POLICIA NACIONAL", "ESTECONOMI": null, "CLASIFICAD": "75232", "DESCRIPCIO": "Actividades de servicios de orden p£blico y de seguridad" }, "geometry": { "type": "Point", "coordinates": [ -63.115288177293401, -17.736078415662714 ] } },
{ "type": "Feature", "properties": { "COD_ICE": "07150", "DISTRITO": "06", "LUGAR": "CIUDAD SANTA CRUZ DE LA SIERRA", "BARRIO": "GUARACACHI", "UV": "UV-140", "NOMBREREF": "CEIP GRUPO ESPECIAL DE INTELIGENCIA", "ESTECONOMI": "SERVICIO DE INTELIGENCIA", "CLASIFICAD": "75232", "DESCRIPCIO": "Actividades de servicios de orden p£blico y de seguridad" }, "geometry": { "type": "Point", "coordinates": [ -63.141482093675592, -17.780702236984453 ] } },
{ "type": "Feature", "properties": { "COD_ICE": "06430", "DISTRITO": "06", "LUGAR": "CIUDAD SANTA CRUZ DE LA SIERRA", "BARRIO": "MONTE CRISTO ESTE", "UV": "UV-152", "NOMBREREF": "FELCN GARRAS", "ESTECONOMI": null, "CLASIFICAD": "75232", "DESCRIPCIO": "Actividades de servicios de orden p£blico y de seguridad" }, "geometry": { "type": "Point", "coordinates": [ -63.107283983316087, -17.765021105011535 ] } },
{ "type": "Feature", "properties": { "COD_ICE": "05250", "DISTRITO": "07", "LUGAR": "CIUDAD SANTA CRUZ DE LA SIERRA", "BARRIO": "24 DE JULIO", "UV": "ET-33", "NOMBREREF": "MODULO POLICIAL 24 DE JULIO", "ESTECONOMI": null, "CLASIFICAD": "75232", "DESCRIPCIO": "Actividades de servicios de orden p£blico y de seguridad" }, "geometry": { "type": "Point", "coordinates": [ -63.11717608997823, -17.78094237422178 ] } },
{ "type": "Feature", "properties": { "COD_ICE": "02140", "DISTRITO": "07", "LUGAR": "CIUDAD SANTA CRUZ DE LA SIERRA", "BARRIO": "EL PORVENIR", "UV": "UV-83", "NOMBREREF": "POLICIA BOLIVIANA MODULO 1", "ESTECONOMI": null, "CLASIFICAD": "75232", "DESCRIPCIO": "Actividades de servicios de orden p£blico y de seguridad" }, "geometry": { "type": "Point", "coordinates": [ -63.129091760907158, -17.786677440375502 ] } },
{ "type": "Feature", "properties": { "COD_ICE": "09740", "DISTRITO": "08", "LUGAR": "CIUDAD SANTA CRUZ DE LA SIERRA", "BARRIO": "SAN LUISITO", "UV": "UV-157", "NOMBREREF": "PUESTO POLICIAL", "ESTECONOMI": null, "CLASIFICAD": "75232", "DESCRIPCIO": "Actividades de servicios de orden p£blico y de seguridad" }, "geometry": { "type": "Point", "coordinates": [ -63.102671990122126, -17.829315364538196 ] } },
{ "type": "Feature", "properties": { "COD_ICE": "01620", "DISTRITO": "08", "LUGAR": "CIUDAD SANTA CRUZ DE LA SIERRA", "BARRIO": "18 DE MARZO", "UV": "UV-150", "NOMBREREF": "OFICINA DE CONCILIACION CIUDADANA # (INFORMANTE)(POLICIA)", "ESTECONOMI": null, "CLASIFICAD": "75232", "DESCRIPCIO": "Actividades de servicios de orden p£blico y de seguridad" }, "geometry": { "type": "Point", "coordinates": [ -63.134400765779858, -17.826086161766778 ] } },
{ "type": "Feature", "properties": { "COD_ICE": "05620", "DISTRITO": "08", "LUGAR": "CIUDAD SANTA CRUZ DE LA SIERRA", "BARRIO": "PRIMAVERA", "UV": "UV-156", "NOMBREREF": "POLICIA BOLIVIANA MODULO POLICIAL PLAN 3000", "ESTECONOMI": "NULL", "CLASIFICAD": "75232", "DESCRIPCIO": "Actividades de servicios de orden p£blico y de seguridad" }, "geometry": { "type": "Point", "coordinates": [ -63.102923385065289, -17.816770437702218 ] } },
{ "type": "Feature", "properties": { "COD_ICE": "07690", "DISTRITO": "08", "LUGAR": "CIUDAD SANTA CRUZ DE LA SIERRA", "BARRIO": "URBANIZACION LAS ORQUIDEAS", "UV": "UV-160", "NOMBREREF": "FUERZA ESPECIAL DE LUCHA CONTRA EL CRIMEN FELCC", "ESTECONOMI": null, "CLASIFICAD": "75232", "DESCRIPCIO": "Actividades de servicios de orden p£blico y de seguridad" }, "geometry": { "type": "Point", "coordinates": [ -63.126837003827127, -17.836759577227625 ] } },
{ "type": "Feature", "properties": { "COD_ICE": "03930", "DISTRITO": "09", "LUGAR": "CIUDAD SANTA CRUZ DE LA SIERRA", "BARRIO": "CAJA PETROLERA", "UV": "UV-116", "NOMBREREF": "OFICINA POLICIAL", "ESTECONOMI": null, "CLASIFICAD": "75232", "DESCRIPCIO": "Actividades de servicios de orden p£blico y de seguridad" }, "geometry": { "type": "Point", "coordinates": [ -63.186942792913221, -17.841623231613521 ] } },
{ "type": "Feature", "properties": { "COD_ICE": "02860", "DISTRITO": "09", "LUGAR": "CIUDAD SANTA CRUZ DE LA SIERRA", "BARRIO": "TRANSPORTISTA", "UV": "UV-115", "NOMBREREF": "PUESTO POLICIAL", "ESTECONOMI": null, "CLASIFICAD": "75232", "DESCRIPCIO": "Actividades de servicios de orden p£blico y de seguridad" }, "geometry": { "type": "Point", "coordinates": [ -63.177086337758766, -17.838951784663958 ] } },
{ "type": "Feature", "properties": { "COD_ICE": "07980", "DISTRITO": "09", "LUGAR": "CIUDAD SANTA CRUZ DE LA SIERRA", "BARRIO": "CAMINERO", "UV": "UV-132", "NOMBREREF": "PUESTO POLICIAL DESOCUPADO", "ESTECONOMI": null, "CLASIFICAD": "75232", "DESCRIPCIO": "Actividades de servicios de orden p£blico y de seguridad" }, "geometry": { "type": "Point", "coordinates": [ -63.20342160982257, -17.850618796904481 ] } },
{ "type": "Feature", "properties": { "COD_ICE": "01120", "DISTRITO": "09", "LUGAR": "CIUDAD SANTA CRUZ DE LA SIERRA", "BARRIO": "LA COLORADA", "UV": "UV-106", "NOMBREREF": "MODULO POLICIAL", "ESTECONOMI": null, "CLASIFICAD": "75232", "DESCRIPCIO": "Actividades de servicios de orden p£blico y de seguridad" }, "geometry": { "type": "Point", "coordinates": [ -63.1723126507366, -17.823310347374946 ] } },
{ "type": "Feature", "properties": { "COD_ICE": "06220", "DISTRITO": "09", "LUGAR": "CIUDAD SANTA CRUZ DE LA SIERRA", "BARRIO": "DULCE HOGAR", "UV": "UV-130", "NOMBREREF": "MODULO POLICIAL ZONA SUR", "ESTECONOMI": null, "CLASIFICAD": "75232", "DESCRIPCIO": "Actividades de servicios de orden p£blico y de seguridad" }, "geometry": { "type": "Point", "coordinates": [ -63.201663876511418, -17.846402127531707 ] } },
{ "type": "Feature", "properties": { "COD_ICE": "05350", "DISTRITO": "09", "LUGAR": "CIUDAD SANTA CRUZ DE LA SIERRA", "BARRIO": "URBANIZACION SALUD", "UV": "UV-122", "NOMBREREF": "POLICIA D NUEVE", "ESTECONOMI": null, "CLASIFICAD": "75232", "DESCRIPCIO": "Actividades de servicios de orden p£blico y de seguridad" }, "geometry": { "type": "Point", "coordinates": [ -63.187082018855286, -17.847026332077952 ] } },
{ "type": "Feature", "properties": { "COD_ICE": "02700", "DISTRITO": "17", "LUGAR": "CIUDAD SANTA CRUZ DE LA SIERRA", "BARRIO": "GUADALUPE", "UV": "UV-225", "NOMBREREF": "PUESTO POLICIAL", "ESTECONOMI": null, "CLASIFICAD": "75232", "DESCRIPCIO": "Actividades de servicios de orden p£blico y de seguridad" }, "geometry": { "type": "Point", "coordinates": [ -63.120959729692899, -17.730284655448187 ] } },
{ "type": "Feature", "properties": { "COD_ICE": "00150", "DISTRITO": "17", "LUGAR": "CIUDAD SANTA CRUZ DE LA SIERRA", "BARRIO": "PAMPA DE ISLA", "UV": null, "NOMBREREF": "FUERZA ESPECIALES DE LUCHA CONTRA LA VIOLENCIA FELCV", "ESTECONOMI": null, "CLASIFICAD": "75232", "DESCRIPCIO": "Actividades de servicios de orden p£blico y de seguridad" }, "geometry": { "type": "Point", "coordinates": [ -63.128721162883735, -17.772472391602406 ] } },
{ "type": "Feature", "properties": { "COD_ICE": "00150", "DISTRITO": "17", "LUGAR": "CIUDAD SANTA CRUZ DE LA SIERRA", "BARRIO": "PAMPA DE ISLA", "UV": null, "NOMBREREF": "FUERZA ESPECIALES DE LUCHA CONTRA LA VIOLENCIA FELCV", "ESTECONOMI": null, "CLASIFICAD": "75232", "DESCRIPCIO": "Actividades de servicios de orden p£blico y de seguridad" }, "geometry": { "type": "Point", "coordinates": [ -63.127304789563695, -17.771516480668492 ] } },
{ "type": "Feature", "properties": { "COD_ICE": "00590", "DISTRITO": "17", "LUGAR": "CIUDAD SANTA CRUZ DE LA SIERRA", "BARRIO": "PARQUE INDUSTRIAL", "UV": "UV-141-A", "NOMBREREF": "FELCN FUERZA ESPECIAL DE LUCHA CONTRA EL NARCOTRAFICO", "ESTECONOMI": null, "CLASIFICAD": "75232", "DESCRIPCIO": "Actividades de servicios de orden p£blico y de seguridad" }, "geometry": { "type": "Point", "coordinates": [ -63.149648601988368, -17.762667174031797 ] } }
]
}
