{
"type": "FeatureCollection",
"crs": { "type": "name", "properties": { "name": "urn:ogc:def:crs:OGC:1.3:CRS84" } },
                                                                                                                                  
"features": [
{ "type": "Feature", "properties": { "nombre": null, "ORIG_FID": 0 }, "geometry": { "type": "Point", "coordinates": [ -67.251267637487672, -20.202585626591997 ] } },
{ "type": "Feature", "properties": { "nombre": "Abaroa", "ORIG_FID": 1 }, "geometry": { "type": "Point", "coordinates": [ -66.774654237392156, -18.876495346489833 ] } },
{ "type": "Feature", "properties": { "nombre": "Abel Iturralde", "ORIG_FID": 2 }, "geometry": { "type": "Point", "coordinates": [ -67.998372347161023, -13.177057319845915 ] } },
{ "type": "Feature", "properties": { "nombre": "Abuná", "ORIG_FID": 3 }, "geometry": { "type": "Point", "coordinates": [ -66.985774679519068, -10.606429083209093 ] } },
{ "type": "Feature", "properties": { "nombre": "Alonso de Ibáñez", "ORIG_FID": 4 }, "geometry": { "type": "Point", "coordinates": [ -66.434268288377268, -18.14037247326354 ] } },
{ "type": "Feature", "properties": { "nombre": "Andrés Ibáñez", "ORIG_FID": 5 }, "geometry": { "type": "Point", "coordinates": [ -63.20120466313449, -17.888232588167739 ] } },
{ "type": "Feature", "properties": { "nombre": "Angel Sandoval", "ORIG_FID": 6 }, "geometry": { "type": "Point", "coordinates": [ -58.823346410929958, -17.255065999743749 ] } },
{ "type": "Feature", "properties": { "nombre": "Antonio Quijarro", "ORIG_FID": 7 }, "geometry": { "type": "Point", "coordinates": [ -66.546684880137036, -20.066269352391998 ] } },
{ "type": "Feature", "properties": { "nombre": "Arani", "ORIG_FID": 8 }, "geometry": { "type": "Point", "coordinates": [ -65.636024193702042, -17.590408706901826 ] } },
{ "type": "Feature", "properties": { "nombre": "Arce", "ORIG_FID": 9 }, "geometry": { "type": "Point", "coordinates": [ -64.575385884781724, -22.037396239917427 ] } },
{ "type": "Feature", "properties": { "nombre": "Aroma", "ORIG_FID": 10 }, "geometry": { "type": "Point", "coordinates": [ -67.875840966832754, -17.281768430415013 ] } },
{ "type": "Feature", "properties": { "nombre": "Arque", "ORIG_FID": 11 }, "geometry": { "type": "Point", "coordinates": [ -66.513873648264223, -17.807014647076187 ] } },
{ "type": "Feature", "properties": { "nombre": "Avilés", "ORIG_FID": 12 }, "geometry": { "type": "Point", "coordinates": [ -64.716952286867638, -21.737508846938795 ] } },
{ "type": "Feature", "properties": { "nombre": "Ayopaya", "ORIG_FID": 13 }, "geometry": { "type": "Point", "coordinates": [ -66.594312795056908, -16.650672278930585 ] } },
{ "type": "Feature", "properties": { "nombre": "Azurduy", "ORIG_FID": 14 }, "geometry": { "type": "Point", "coordinates": [ -64.489415910035802, -20.001905133024081 ] } },
{ "type": "Feature", "properties": { "nombre": "Bautista Saavedra", "ORIG_FID": 15 }, "geometry": { "type": "Point", "coordinates": [ -68.774563105227969, -15.013082851035733 ] } },
{ "type": "Feature", "properties": { "nombre": "Belisario Boeto", "ORIG_FID": 16 }, "geometry": { "type": "Point", "coordinates": [ -64.30003020119301, -18.951870221332854 ] } },
{ "type": "Feature", "properties": { "nombre": "Bolivar", "ORIG_FID": 17 }, "geometry": { "type": "Point", "coordinates": [ -66.644521557907353, -18.015567247788283 ] } },
{ "type": "Feature", "properties": { "nombre": "Camacho", "ORIG_FID": 18 }, "geometry": { "type": "Point", "coordinates": [ -69.092755801945543, -15.533552643851806 ] } },
{ "type": "Feature", "properties": { "nombre": "Campero", "ORIG_FID": 19 }, "geometry": { "type": "Point", "coordinates": [ -64.870807410172176, -18.318310461374892 ] } },
{ "type": "Feature", "properties": { "nombre": "Capinota", "ORIG_FID": 20 }, "geometry": { "type": "Point", "coordinates": [ -66.237587288889131, -17.717063411736547 ] } },
{ "type": "Feature", "properties": { "nombre": "Caranavi", "ORIG_FID": 21 }, "geometry": { "type": "Point", "coordinates": [ -67.448347074693402, -15.748665647995836 ] } },
{ "type": "Feature", "properties": { "nombre": "Carangas", "ORIG_FID": 22 }, "geometry": { "type": "Point", "coordinates": [ -67.832844811507471, -18.390711593920287 ] } },
{ "type": "Feature", "properties": { "nombre": "Carrasco", "ORIG_FID": 23 }, "geometry": { "type": "Point", "coordinates": [ -64.907146507056837, -17.229399061961374 ] } },
{ "type": "Feature", "properties": { "nombre": "Cercado", "ORIG_FID": 24 }, "geometry": { "type": "Point", "coordinates": [ -64.46671280506996, -14.495578536105313 ] } },
{ "type": "Feature", "properties": { "nombre": "Chapare", "ORIG_FID": 25 }, "geometry": { "type": "Point", "coordinates": [ -65.614088760473578, -16.701653383672294 ] } },
{ "type": "Feature", "properties": { "nombre": "Chárcas", "ORIG_FID": 26 }, "geometry": { "type": "Point", "coordinates": [ -65.875207332067305, -18.295021465827176 ] } },
{ "type": "Feature", "properties": { "nombre": "Chayanta", "ORIG_FID": 27 }, "geometry": { "type": "Point", "coordinates": [ -65.886946723906931, -18.768254974089643 ] } },
{ "type": "Feature", "properties": { "nombre": "Chiquitos", "ORIG_FID": 28 }, "geometry": { "type": "Point", "coordinates": [ -60.792670723587378, -17.813476428882097 ] } },
{ "type": "Feature", "properties": { "nombre": "Cordillera", "ORIG_FID": 29 }, "geometry": { "type": "Point", "coordinates": [ -62.526781018010126, -19.247430048311742 ] } },
{ "type": "Feature", "properties": { "nombre": "Cornelio Saavedra", "ORIG_FID": 30 }, "geometry": { "type": "Point", "coordinates": [ -65.363616507595111, -19.414773934693756 ] } },
{ "type": "Feature", "properties": { "nombre": "Daniel Campos", "ORIG_FID": 31 }, "geometry": { "type": "Point", "coordinates": [ -68.328424186401605, -20.091871524612657 ] } },
{ "type": "Feature", "properties": { "nombre": "Enrique Baldivieso", "ORIG_FID": 32 }, "geometry": { "type": "Point", "coordinates": [ -67.382765767726141, -21.568873521520743 ] } },
{ "type": "Feature", "properties": { "nombre": "Esteban Arze", "ORIG_FID": 33 }, "geometry": { "type": "Point", "coordinates": [ -65.933361112732086, -17.839375335472994 ] } },
{ "type": "Feature", "properties": { "nombre": "Federico Román", "ORIG_FID": 34 }, "geometry": { "type": "Point", "coordinates": [ -65.962861697073606, -10.249144525453914 ] } },
{ "type": "Feature", "properties": { "nombre": "Florida", "ORIG_FID": 35 }, "geometry": { "type": "Point", "coordinates": [ -63.914220287835747, -18.120710921537977 ] } },
{ "type": "Feature", "properties": { "nombre": "Franz Tamayo", "ORIG_FID": 36 }, "geometry": { "type": "Point", "coordinates": [ -68.358682786567442, -14.679447529472554 ] } },
{ "type": "Feature", "properties": { "nombre": "General Bilbao", "ORIG_FID": 37 }, "geometry": { "type": "Point", "coordinates": [ -66.070981375740587, -17.996895670402978 ] } },
{ "type": "Feature", "properties": { "nombre": "General José Ballivián", "ORIG_FID": 38 }, "geometry": { "type": "Point", "coordinates": [ -66.894910796926467, -13.910447788622946 ] } },
{ "type": "Feature", "properties": { "nombre": "General José Manuel Pando", "ORIG_FID": 39 }, "geometry": { "type": "Point", "coordinates": [ -69.330814877698856, -17.207654658917193 ] } },
{ "type": "Feature", "properties": { "nombre": "Germán Busch", "ORIG_FID": 40 }, "geometry": { "type": "Point", "coordinates": [ -58.362198330469766, -18.777804238405736 ] } },
{ "type": "Feature", "properties": { "nombre": "Germán Jordán", "ORIG_FID": 41 }, "geometry": { "type": "Point", "coordinates": [ -65.9239617445985, -17.627085181450411 ] } },
{ "type": "Feature", "properties": { "nombre": "Gran Chaco", "ORIG_FID": 42 }, "geometry": { "type": "Point", "coordinates": [ -63.158262158506261, -21.557537680006533 ] } },
{ "type": "Feature", "properties": { "nombre": "Gualberto Villarroe", "ORIG_FID": 43 }, "geometry": { "type": "Point", "coordinates": [ -67.70958185889549, -17.697203716559102 ] } },
{ "type": "Feature", "properties": { "nombre": "Gualberto Villarroel", "ORIG_FID": 44 }, "geometry": { "type": "Point", "coordinates": [ -67.966635826422419, -17.633486709717886 ] } },
{ "type": "Feature", "properties": { "nombre": "Guarayos", "ORIG_FID": 45 }, "geometry": { "type": "Point", "coordinates": [ -63.046169179636252, -15.303524872127412 ] } },
{ "type": "Feature", "properties": { "nombre": "Hernando Siles", "ORIG_FID": 46 }, "geometry": { "type": "Point", "coordinates": [ -64.044574275973844, -20.286127907886851 ] } },
{ "type": "Feature", "properties": { "nombre": "Ichilo", "ORIG_FID": 47 }, "geometry": { "type": "Point", "coordinates": [ -64.165610752488362, -16.977419114636973 ] } },
{ "type": "Feature", "properties": { "nombre": "Ingavi", "ORIG_FID": 48 }, "geometry": { "type": "Point", "coordinates": [ -69.030525690331444, -16.874631853562164 ] } },
{ "type": "Feature", "properties": { "nombre": "Inquisivi", "ORIG_FID": 49 }, "geometry": { "type": "Point", "coordinates": [ -67.090872355341219, -16.871792640838237 ] } },
{ "type": "Feature", "properties": { "nombre": "Iténez", "ORIG_FID": 50 }, "geometry": { "type": "Point", "coordinates": [ -63.357687922259345, -13.416681259829602 ] } },
{ "type": "Feature", "properties": { "nombre": "José María Linares", "ORIG_FID": 51 }, "geometry": { "type": "Point", "coordinates": [ -65.307177298427916, -19.855621856917651 ] } },
{ "type": "Feature", "properties": { "nombre": "Ladislao Cabrera", "ORIG_FID": 52 }, "geometry": { "type": "Point", "coordinates": [ -67.545382287153586, -19.405260779411435 ] } },
{ "type": "Feature", "properties": { "nombre": "Larecaja", "ORIG_FID": 53 }, "geometry": { "type": "Point", "coordinates": [ -68.169238983854427, -15.597373033923532 ] } },
{ "type": "Feature", "properties": { "nombre": "Litoral", "ORIG_FID": 54 }, "geometry": { "type": "Point", "coordinates": [ -68.200519272565373, -18.767600545757148 ] } },
{ "type": "Feature", "properties": { "nombre": "Loayza", "ORIG_FID": 55 }, "geometry": { "type": "Point", "coordinates": [ -67.666065496855424, -16.994890704007844 ] } },
{ "type": "Feature", "properties": { "nombre": "Los Andes", "ORIG_FID": 56 }, "geometry": { "type": "Point", "coordinates": [ -68.436371208741036, -16.360723528591166 ] } },
{ "type": "Feature", "properties": { "nombre": "Luis Calvo", "ORIG_FID": 57 }, "geometry": { "type": "Point", "coordinates": [ -63.096172169651709, -20.726355266587291 ] } },
{ "type": "Feature", "properties": { "nombre": "Madre de Dios", "ORIG_FID": 58 }, "geometry": { "type": "Point", "coordinates": [ -67.107801390380189, -11.714249456223627 ] } },
{ "type": "Feature", "properties": { "nombre": "Mamoré", "ORIG_FID": 59 }, "geometry": { "type": "Point", "coordinates": [ -64.761029986188078, -13.134833990684967 ] } },
{ "type": "Feature", "properties": { "nombre": "Manco Kapac", "ORIG_FID": 60 }, "geometry": { "type": "Point", "coordinates": [ -69.006079686411965, -16.171856816866239 ] } },
{ "type": "Feature", "properties": { "nombre": "Manuel María Caballero", "ORIG_FID": 61 }, "geometry": { "type": "Point", "coordinates": [ -64.456869802824031, -17.828812894225564 ] } },
{ "type": "Feature", "properties": { "nombre": "Manuripi", "ORIG_FID": 62 }, "geometry": { "type": "Point", "coordinates": [ -68.006882398020309, -11.543751782609604 ] } },
{ "type": "Feature", "properties": { "nombre": "Marbán", "ORIG_FID": 63 }, "geometry": { "type": "Point", "coordinates": [ -64.367017461218722, -15.34834297594972 ] } },
{ "type": "Feature", "properties": { "nombre": "Mejillones", "ORIG_FID": 64 }, "geometry": { "type": "Point", "coordinates": [ -68.704275522875207, -19.060267743351687 ] } },
{ "type": "Feature", "properties": { "nombre": "Méndez", "ORIG_FID": 65 }, "geometry": { "type": "Point", "coordinates": [ -64.876104475432726, -21.256786094656036 ] } },
{ "type": "Feature", "properties": { "nombre": "Mizque", "ORIG_FID": 66 }, "geometry": { "type": "Point", "coordinates": [ -65.502080304749882, -17.999086646724209 ] } },
{ "type": "Feature", "properties": { "nombre": "Modesto Omiste", "ORIG_FID": 67 }, "geometry": { "type": "Point", "coordinates": [ -65.641935805542289, -21.913199325097708 ] } },
{ "type": "Feature", "properties": { "nombre": "Moxos", "ORIG_FID": 68 }, "geometry": { "type": "Point", "coordinates": [ -65.867864486312158, -15.813075335517851 ] } },
{ "type": "Feature", "properties": { "nombre": "Muñecas", "ORIG_FID": 69 }, "geometry": { "type": "Point", "coordinates": [ -68.769059556866239, -15.442843323224338 ] } },
{ "type": "Feature", "properties": { "nombre": "Murillo", "ORIG_FID": 70 }, "geometry": { "type": "Point", "coordinates": [ -68.133650341402188, -16.403410444500139 ] } },
{ "type": "Feature", "properties": { "nombre": "Nicolás Suárez", "ORIG_FID": 71 }, "geometry": { "type": "Point", "coordinates": [ -67.782414128243545, -10.905941416999724 ] } },
{ "type": "Feature", "properties": { "nombre": "Nor Carangas", "ORIG_FID": 72 }, "geometry": { "type": "Point", "coordinates": [ -67.821032059155641, -17.950710416506183 ] } },
{ "type": "Feature", "properties": { "nombre": "Nor Chichas", "ORIG_FID": 73 }, "geometry": { "type": "Point", "coordinates": [ -65.702155562466714, -20.608439568034555 ] } },
{ "type": "Feature", "properties": { "nombre": "Nor Cinti", "ORIG_FID": 74 }, "geometry": { "type": "Point", "coordinates": [ -64.917477981755724, -20.375474972807638 ] } },
{ "type": "Feature", "properties": { "nombre": "Nor Lipez", "ORIG_FID": 75 }, "geometry": { "type": "Point", "coordinates": [ -67.994141006396774, -21.338672773633562 ] } },
{ "type": "Feature", "properties": { "nombre": "Nor Yungas", "ORIG_FID": 76 }, "geometry": { "type": "Point", "coordinates": [ -67.692879688363803, -16.180544182352776 ] } },
{ "type": "Feature", "properties": { "nombre": "Ñuflo De Chávez", "ORIG_FID": 77 }, "geometry": { "type": "Point", "coordinates": [ -62.217274735200704, -15.816378004402111 ] } },
{ "type": "Feature", "properties": { "nombre": "O'Connor", "ORIG_FID": 78 }, "geometry": { "type": "Point", "coordinates": [ -64.06587645446956, -21.398001308157745 ] } },
{ "type": "Feature", "properties": { "nombre": "Obispo Santistéban", "ORIG_FID": 79 }, "geometry": { "type": "Point", "coordinates": [ -63.458667758349975, -16.728078824160377 ] } },
{ "type": "Feature", "properties": { "nombre": "Omasuyos", "ORIG_FID": 80 }, "geometry": { "type": "Point", "coordinates": [ -68.738131330022441, -16.089093769320186 ] } },
{ "type": "Feature", "properties": { "nombre": "Oropeza", "ORIG_FID": 81 }, "geometry": { "type": "Point", "coordinates": [ -65.306572310069782, -18.845526754455705 ] } },
{ "type": "Feature", "properties": { "nombre": "Pacajes", "ORIG_FID": 82 }, "geometry": { "type": "Point", "coordinates": [ -68.78223400750386, -17.437079033382929 ] } },
{ "type": "Feature", "properties": { "nombre": "Pantaleón Dalence", "ORIG_FID": 83 }, "geometry": { "type": "Point", "coordinates": [ -66.841416964170946, -18.222784509195776 ] } },
{ "type": "Feature", "properties": { "nombre": "Poopó", "ORIG_FID": 84 }, "geometry": { "type": "Point", "coordinates": [ -66.9020435444491, -18.499774737141479 ] } },
{ "type": "Feature", "properties": { "nombre": "Punata", "ORIG_FID": 85 }, "geometry": { "type": "Point", "coordinates": [ -65.84000074368555, -17.584219509610136 ] } },
{ "type": "Feature", "properties": { "nombre": "Quillacollo", "ORIG_FID": 86 }, "geometry": { "type": "Point", "coordinates": [ -66.328069899649336, -17.317548656739802 ] } },
{ "type": "Feature", "properties": { "nombre": "Rafael Bustillo", "ORIG_FID": 87 }, "geometry": { "type": "Point", "coordinates": [ -66.465690028422728, -18.485992545932561 ] } },
{ "type": "Feature", "properties": { "nombre": "Sabaya", "ORIG_FID": 88 }, "geometry": { "type": "Point", "coordinates": [ -68.179401301964162, -19.090037442777088 ] } },
{ "type": "Feature", "properties": { "nombre": "Sajama", "ORIG_FID": 89 }, "geometry": { "type": "Point", "coordinates": [ -68.581897462145434, -18.205627430109416 ] } },
{ "type": "Feature", "properties": { "nombre": "San Pedro de Totora", "ORIG_FID": 90 }, "geometry": { "type": "Point", "coordinates": [ -68.179947106127827, -17.85488959922543 ] } },
{ "type": "Feature", "properties": { "nombre": "Sara", "ORIG_FID": 91 }, "geometry": { "type": "Point", "coordinates": [ -63.730555000728657, -16.847671423946792 ] } },
{ "type": "Feature", "properties": { "nombre": "Saucarí", "ORIG_FID": 92 }, "geometry": { "type": "Point", "coordinates": [ -67.413201306716587, -18.275628045466306 ] } },
{ "type": "Feature", "properties": { "nombre": "Sebastián Pagador", "ORIG_FID": 93 }, "geometry": { "type": "Point", "coordinates": [ -66.563678202278311, -19.164323072024047 ] } },
{ "type": "Feature", "properties": { "nombre": "Sud Yungas", "ORIG_FID": 94 }, "geometry": { "type": "Point", "coordinates": [ -67.085074952361026, -15.883772764236255 ] } },
{ "type": "Feature", "properties": { "nombre": "Sur Carangas", "ORIG_FID": 95 }, "geometry": { "type": "Point", "coordinates": [ -67.497108338921237, -18.892390340001214 ] } },
{ "type": "Feature", "properties": { "nombre": "Sur Chichas", "ORIG_FID": 96 }, "geometry": { "type": "Point", "coordinates": [ -65.898974646339525, -21.375952622242551 ] } },
{ "type": "Feature", "properties": { "nombre": "Sur Cinti", "ORIG_FID": 97 }, "geometry": { "type": "Point", "coordinates": [ -64.801015680044145, -20.917082630310119 ] } },
{ "type": "Feature", "properties": { "nombre": "Sur Lipez", "ORIG_FID": 98 }, "geometry": { "type": "Point", "coordinates": [ -67.609336648370061, -22.432017470621474 ] } },
{ "type": "Feature", "properties": { "nombre": "Tapacarí", "ORIG_FID": 99 }, "geometry": { "type": "Point", "coordinates": [ -66.651514939533797, -17.570829913999773 ] } },
{ "type": "Feature", "properties": { "nombre": "Tiraque", "ORIG_FID": 100 }, "geometry": { "type": "Point", "coordinates": [ -65.463579270729724, -17.261676803499711 ] } },
{ "type": "Feature", "properties": { "nombre": "Tomás Barrón", "ORIG_FID": 101 }, "geometry": { "type": "Point", "coordinates": [ -67.440834188608562, -17.634575450113516 ] } },
{ "type": "Feature", "properties": { "nombre": "Tomás Frías", "ORIG_FID": 102 }, "geometry": { "type": "Point", "coordinates": [ -65.937672659702457, -19.40275525371527 ] } },
{ "type": "Feature", "properties": { "nombre": "Tomina", "ORIG_FID": 103 }, "geometry": { "type": "Point", "coordinates": [ -64.315195376520819, -19.416425919580092 ] } },
{ "type": "Feature", "properties": { "nombre": "Vaca Diez", "ORIG_FID": 104 }, "geometry": { "type": "Point", "coordinates": [ -65.876891315789237, -11.454237366753716 ] } },
{ "type": "Feature", "properties": { "nombre": "Vallegrande", "ORIG_FID": 105 }, "geometry": { "type": "Point", "coordinates": [ -63.993556393056281, -18.668190044095525 ] } },
{ "type": "Feature", "properties": { "nombre": "Velasco", "ORIG_FID": 106 }, "geometry": { "type": "Point", "coordinates": [ -60.912261462125059, -15.538950424893756 ] } },
{ "type": "Feature", "properties": { "nombre": "Warnes", "ORIG_FID": 107 }, "geometry": { "type": "Point", "coordinates": [ -62.981168058041931, -17.37304403787499 ] } },
{ "type": "Feature", "properties": { "nombre": "Yacuma", "ORIG_FID": 108 }, "geometry": { "type": "Point", "coordinates": [ -65.881815259986126, -13.519109792698998 ] } },
{ "type": "Feature", "properties": { "nombre": "Yamparáez", "ORIG_FID": 109 }, "geometry": { "type": "Point", "coordinates": [ -64.969515821626544, -19.166964341154483 ] } },
{ "type": "Feature", "properties": { "nombre": "Zudáñez", "ORIG_FID": 110 }, "geometry": { "type": "Point", "coordinates": [ -64.754523748297856, -18.964534265956843 ] } }
]
}
