{
"type": "FeatureCollection",
"crs": { "type": "name", "properties": { "name": "urn:ogc:def:crs:OGC:1.3:CRS84" } },
                                                                                                                                  
"features": [
{ "type": "Feature", "properties": { "COD_ICE": "08860", "DISTRITO": "01", "LUGAR": "CIUDAD SANTA CRUZ DE LA SIERRA", "BARRIO": "12 DE OCTUBRE", "UV": "UV-62", "NOMBREREF": "HOSTAL TROTAMUNDO", "ESTECONOMI": null, "CLASIFICAD": "55102", "DESCRIPCIO": "Servicios de residenciales y hostales" }, "geometry": { "type": "Point", "coordinates": [ -63.178169019166866, -17.752186071656222 ] } },
{ "type": "Feature", "properties": { "COD_ICE": "03630", "DISTRITO": "01", "LUGAR": "CIUDAD SANTA CRUZ DE LA SIERRA", "BARRIO": "SAAVEDRA", "UV": "UV-53", "NOMBREREF": "RESIDENCIAL LOS MANGALES", "ESTECONOMI": "SERVICIO DE HABITACION", "CLASIFICAD": "55102", "DESCRIPCIO": "Servicios de residenciales y hostales" }, "geometry": { "type": "Point", "coordinates": [ -63.206609818472884, -17.792043274706703 ] } },
{ "type": "Feature", "properties": { "COD_ICE": "04020", "DISTRITO": "01", "LUGAR": "CIUDAD SANTA CRUZ DE LA SIERRA", "BARRIO": "BELEN", "UV": "UV-60", "NOMBREREF": "NEW TROPICAL RESIDENCIAL", "ESTECONOMI": "SERVICIO DE HOSPEDAJE", "CLASIFICAD": "55102", "DESCRIPCIO": "Servicios de residenciales y hostales" }, "geometry": { "type": "Point", "coordinates": [ -63.188992093346265, -17.759405737580408 ] } },
{ "type": "Feature", "properties": { "COD_ICE": "07150", "DISTRITO": "01", "LUGAR": "CIUDAD SANTA CRUZ DE LA SIERRA", "BARRIO": "SE¥OR DE LOS MILAGROS", "UV": "UV-55", "NOMBREREF": "RESIDENCIAL MANDARIN", "ESTECONOMI": "SERVICIOS DE HOSPEDAJE", "CLASIFICAD": "55102", "DESCRIPCIO": "Servicios de residenciales y hostales" }, "geometry": { "type": "Point", "coordinates": [ -63.214794500629303, -17.778039817062822 ] } },
{ "type": "Feature", "properties": { "COD_ICE": "07150", "DISTRITO": "01", "LUGAR": "CIUDAD SANTA CRUZ DE LA SIERRA", "BARRIO": "SE¥OR DE LOS MILAGROS", "UV": "UV-55", "NOMBREREF": "RESIDENCIAL MANDARIN", "ESTECONOMI": "SERVICIOS DE HOSPEDAJE", "CLASIFICAD": "55102", "DESCRIPCIO": "Servicios de residenciales y hostales" }, "geometry": { "type": "Point", "coordinates": [ -63.213984756790609, -17.778016867769153 ] } },
{ "type": "Feature", "properties": { "COD_ICE": "07940", "DISTRITO": "01", "LUGAR": "CIUDAD SANTA CRUZ DE LA SIERRA", "BARRIO": "VILLA ROSARIO", "UV": "UV-53", "NOMBREREF": "RESIDENCIAL HERBAS", "ESTECONOMI": null, "CLASIFICAD": "55102", "DESCRIPCIO": "Servicios de residenciales y hostales" }, "geometry": { "type": "Point", "coordinates": [ -63.216158800297862, -17.794481381020653 ] } },
{ "type": "Feature", "properties": { "COD_ICE": "04640", "DISTRITO": "10", "LUGAR": "CIUDAD SANTA CRUZ DE LA SIERRA", "BARRIO": "PETROLERO ORIENTE", "UV": "UV_127", "NOMBREREF": "RESIDENCIAL NUEVO AMANECER", "ESTECONOMI": "SERVICIO DE HOSPEDAJE", "CLASIFICAD": "55102", "DESCRIPCIO": "Servicios de residenciales y hostales" }, "geometry": { "type": "Point", "coordinates": [ -63.227467265542103, -17.819489168411479 ] } },
{ "type": "Feature", "properties": { "COD_ICE": "02850", "DISTRITO": "10", "LUGAR": "CIUDAD SANTA CRUZ DE LA SIERRA", "BARRIO": "URBANIZACION FLAMINGO", "UV": "UV_119", "NOMBREREF": "RESIDENCIAL OJOS DE AGUA", "ESTECONOMI": null, "CLASIFICAD": "55102", "DESCRIPCIO": "Servicios de residenciales y hostales" }, "geometry": { "type": "Point", "coordinates": [ -63.209622516752496, -17.821738652175355 ] } },
{ "type": "Feature", "properties": { "COD_ICE": "04810", "DISTRITO": "10", "LUGAR": "CIUDAD SANTA CRUZ DE LA SIERRA", "BARRIO": "SANTA ANA", "UV": "UV_127", "NOMBREREF": "RESIDENCIAL SE¥OR DE MAYO", "ESTECONOMI": null, "CLASIFICAD": "55102", "DESCRIPCIO": "Servicios de residenciales y hostales" }, "geometry": { "type": "Point", "coordinates": [ -63.221554564418334, -17.822921845908304 ] } },
{ "type": "Feature", "properties": { "COD_ICE": "00920", "DISTRITO": "11", "LUGAR": "CIUDAD SANTA CRUZ DE LA SIERRA", "BARRIO": "CASCO VIEJO", "UV": "UV-C1", "NOMBREREF": "RESIDENCIAL CRISMAR", "ESTECONOMI": "SERVICIOS DE ALOJAMIENTO", "CLASIFICAD": "55102", "DESCRIPCIO": "Servicios de residenciales y hostales" }, "geometry": { "type": "Point", "coordinates": [ -63.185517919037849, -17.787186508659872 ] } },
{ "type": "Feature", "properties": { "COD_ICE": "02690", "DISTRITO": "11", "LUGAR": "CIUDAD SANTA CRUZ DE LA SIERRA", "BARRIO": "CASCO VIEJO", "UV": null, "NOMBREREF": "RESIDENCIAL CORDIAL", "ESTECONOMI": "SERVCIO DE HOSPEDAJE", "CLASIFICAD": "55102", "DESCRIPCIO": "Servicios de residenciales y hostales" }, "geometry": { "type": "Point", "coordinates": [ -63.178399334582032, -17.776633127524871 ] } },
{ "type": "Feature", "properties": { "COD_ICE": "00260", "DISTRITO": "11", "LUGAR": "CIUDAD SANTA CRUZ DE LA SIERRA", "BARRIO": "CASCO VIEJO", "UV": "UV-II", "NOMBREREF": "RESIDENCIAL BOLIVAR", "ESTECONOMI": "SERVICIO DE HOSPEDAJE", "CLASIFICAD": "55102", "DESCRIPCIO": "Servicios de residenciales y hostales" }, "geometry": { "type": "Point", "coordinates": [ -63.180082988955398, -17.783478411489732 ] } },
{ "type": "Feature", "properties": { "COD_ICE": "04880", "DISTRITO": "11", "LUGAR": "CIUDAD SANTA CRUZ DE LA SIERRA", "BARRIO": "MAQUINA VIEJA", "UV": "UV-1", "NOMBREREF": "HOSTAL DO¥A  ALICIA", "ESTECONOMI": "HOSTAL DO¥A  ALICIA", "CLASIFICAD": "55102", "DESCRIPCIO": "Servicios de residenciales y hostales" }, "geometry": { "type": "Point", "coordinates": [ -63.180284432870046, -17.770942398480322 ] } },
{ "type": "Feature", "properties": { "COD_ICE": "01080", "DISTRITO": "11", "LUGAR": "CIUDAD SANTA CRUZ DE LA SIERRA", "BARRIO": "CASCO VIEJO", "UV": null, "NOMBREREF": "RESIDENCIAL LOS POZOS", "ESTECONOMI": "SERVICIOS DE HOSPEDAJE", "CLASIFICAD": "55102", "DESCRIPCIO": "Servicios de residenciales y hostales" }, "geometry": { "type": "Point", "coordinates": [ -63.178336753672674, -17.778456977266568 ] } },
{ "type": "Feature", "properties": { "COD_ICE": "05710", "DISTRITO": "11", "LUGAR": "CIUDAD SANTA CRUZ DE LA SIERRA", "BARRIO": "PARAISO", "UV": "UV-2", "NOMBREREF": "KOLPING (RESIDENCIAL)", "ESTECONOMI": "SERVICIO DE HOSPEDAJE", "CLASIFICAD": "55102", "DESCRIPCIO": "Servicios de residenciales y hostales" }, "geometry": { "type": "Point", "coordinates": [ -63.171193281329707, -17.773808397801456 ] } },
{ "type": "Feature", "properties": { "COD_ICE": "02250", "DISTRITO": "11", "LUGAR": "CIUDAD SANTA CRUZ DE LA SIERRA", "BARRIO": "CASCO VIEJO", "UV": null, "NOMBREREF": "RESIDENCIAL PARADERO", "ESTECONOMI": "SERVICIO DE ALOJAMIENTO", "CLASIFICAD": "55102", "DESCRIPCIO": "Servicios de residenciales y hostales" }, "geometry": { "type": "Point", "coordinates": [ -63.187089229409878, -17.787523621871976 ] } },
{ "type": "Feature", "properties": { "COD_ICE": "02800", "DISTRITO": "11", "LUGAR": "CIUDAD SANTA CRUZ DE LA SIERRA", "BARRIO": "CASCO VIEJO", "UV": "UV-B", "NOMBREREF": "RESIDENCIAL ADRIN", "ESTECONOMI": "SERVICIO DE HOSPEDAJE", "CLASIFICAD": "55102", "DESCRIPCIO": "Servicios de residenciales y hostales" }, "geometry": { "type": "Point", "coordinates": [ -63.177293604448614, -17.775094655290179 ] } },
{ "type": "Feature", "properties": { "COD_ICE": "02410", "DISTRITO": "11", "LUGAR": "CIUDAD SANTA CRUZ DE LA SIERRA", "BARRIO": "CASCO VIEJO", "UV": "UV-B", "NOMBREREF": "RESIDENCIAL FANCI", "ESTECONOMI": "SERVICIO DE ALOJAMIENTO", "CLASIFICAD": "55102", "DESCRIPCIO": "Servicios de residenciales y hostales" }, "geometry": { "type": "Point", "coordinates": [ -63.178851064584421, -17.777660390372709 ] } },
{ "type": "Feature", "properties": { "COD_ICE": "03520", "DISTRITO": "11", "LUGAR": "CIUDAD SANTA CRUZ DE LA SIERRA", "BARRIO": "EL PARAISO", "UV": null, "NOMBREREF": "RESIDENCIAL TARUMA", "ESTECONOMI": null, "CLASIFICAD": "55102", "DESCRIPCIO": "Servicios de residenciales y hostales" }, "geometry": { "type": "Point", "coordinates": [ -63.172212503231734, -17.777410636841307 ] } },
{ "type": "Feature", "properties": { "COD_ICE": "06900", "DISTRITO": "11", "LUGAR": "CIUDAD SANTA CRUZ DE LA SIERRA", "BARRIO": null, "UV": "UV-10", "NOMBREREF": "RESIDENCIAL MOMENTOS", "ESTECONOMI": "SERVICIOS DE HOSPEDAJE", "CLASIFICAD": "55102", "DESCRIPCIO": "Servicios de residenciales y hostales" }, "geometry": { "type": "Point", "coordinates": [ -63.193631237255268, -17.795232389783806 ] } },
{ "type": "Feature", "properties": { "COD_ICE": "03670", "DISTRITO": "11", "LUGAR": "CIUDAD SANTA CRUZ DE LA SIERRA", "BARRIO": "BARRIO LINDO", "UV": "UV-5", "NOMBREREF": "RESIDENCIAL MIMOS", "ESTECONOMI": "SERVICIOS DE HOSPEDAJE", "CLASIFICAD": "55102", "DESCRIPCIO": "Servicios de residenciales y hostales" }, "geometry": { "type": "Point", "coordinates": [ -63.170593907181718, -17.79070640263182 ] } },
{ "type": "Feature", "properties": { "COD_ICE": "03110", "DISTRITO": "11", "LUGAR": "CIUDAD SANTA CRUZ DE LA SIERRA", "BARRIO": "CASCO VIEJO", "UV": null, "NOMBREREF": "RESIDENCIAL IKANDIRE II", "ESTECONOMI": "SERVICIO DE HOSPEDAJE", "CLASIFICAD": "55102", "DESCRIPCIO": "Servicios de residenciales y hostales" }, "geometry": { "type": "Point", "coordinates": [ -63.175132303101634, -17.775833658043179 ] } },
{ "type": "Feature", "properties": { "COD_ICE": "05680", "DISTRITO": "11", "LUGAR": "CIUDAD SANTA CRUZ DE LA SIERRA", "BARRIO": "FE Y ALEGRIA - LA MERCED", "UV": "UV-11", "NOMBREREF": "RESIDENCIAL NO TE OLVIDES", "ESTECONOMI": "SERVICIO DE HOSPEDAJES", "CLASIFICAD": "55102", "DESCRIPCIO": "Servicios de residenciales y hostales" }, "geometry": { "type": "Point", "coordinates": [ -63.192240047550811, -17.787055103823256 ] } },
{ "type": "Feature", "properties": { "COD_ICE": "02430", "DISTRITO": "11", "LUGAR": "CIUDAD SANTA CRUZ DE LA SIERRA", "BARRIO": "CASCO VIEJO", "UV": null, "NOMBREREF": "RESIDENCIAL CATOLICA CENTRAL", "ESTECONOMI": "SERVICIO DE HOSPEDAJE", "CLASIFICAD": "55102", "DESCRIPCIO": "Servicios de residenciales y hostales" }, "geometry": { "type": "Point", "coordinates": [ -63.176961294423378, -17.776112277461749 ] } },
{ "type": "Feature", "properties": { "COD_ICE": "03800", "DISTRITO": "11", "LUGAR": "CIUDAD SANTA CRUZ DE LA SIERRA", "BARRIO": "MILITAR", "UV": "UV-08", "NOMBREREF": "RESIDENCIAL ORURO", "ESTECONOMI": "SERVICIO DE HOSPEDAJE", "CLASIFICAD": "55102", "DESCRIPCIO": "Servicios de residenciales y hostales" }, "geometry": { "type": "Point", "coordinates": [ -63.186101546302076, -17.793574401335839 ] } },
{ "type": "Feature", "properties": { "COD_ICE": "03800", "DISTRITO": "11", "LUGAR": "CIUDAD SANTA CRUZ DE LA SIERRA", "BARRIO": "MILITAR", "UV": "UV-08", "NOMBREREF": "RESIDENCIAL ORURO", "ESTECONOMI": "SERVICIO DE HOSPEDAJE", "CLASIFICAD": "55102", "DESCRIPCIO": "Servicios de residenciales y hostales" }, "geometry": { "type": "Point", "coordinates": [ -63.186361347766493, -17.794163225765157 ] } },
{ "type": "Feature", "properties": { "COD_ICE": "03800", "DISTRITO": "11", "LUGAR": "CIUDAD SANTA CRUZ DE LA SIERRA", "BARRIO": "MILITAR", "UV": "UV-08", "NOMBREREF": "RESIDENCIAL ORURO", "ESTECONOMI": "SERVICIO DE HOSPEDAJE", "CLASIFICAD": "55102", "DESCRIPCIO": "Servicios de residenciales y hostales" }, "geometry": { "type": "Point", "coordinates": [ -63.186534546728659, -17.794044088315104 ] } },
{ "type": "Feature", "properties": { "COD_ICE": "03800", "DISTRITO": "11", "LUGAR": "CIUDAD SANTA CRUZ DE LA SIERRA", "BARRIO": "MILITAR", "UV": "UV-08", "NOMBREREF": "RESIDENCIAL ORURO", "ESTECONOMI": "SERVICIO DE HOSPEDAJE", "CLASIFICAD": "55102", "DESCRIPCIO": "Servicios de residenciales y hostales" }, "geometry": { "type": "Point", "coordinates": [ -63.186407340617336, -17.793929163482311 ] } },
{ "type": "Feature", "properties": { "COD_ICE": "04670", "DISTRITO": "11", "LUGAR": "CIUDAD SANTA CRUZ DE LA SIERRA", "BARRIO": "MILITAR", "UV": "UV-08", "NOMBREREF": "RESIDENCIAL RAQUELITA", "ESTECONOMI": "SERVICIO DE HOSPEDAJE", "CLASIFICAD": "55102", "DESCRIPCIO": "Servicios de residenciales y hostales" }, "geometry": { "type": "Point", "coordinates": [ -63.185393411863274, -17.794563603350145 ] } },
{ "type": "Feature", "properties": { "COD_ICE": "04680", "DISTRITO": "11", "LUGAR": "CIUDAD SANTA CRUZ DE LA SIERRA", "BARRIO": "MILITAR", "UV": "UV-08", "NOMBREREF": "RESIDENCIAL SE¥OR DE LOS MILAGROS", "ESTECONOMI": "SERVICIO DE HOSPEDAJE", "CLASIFICAD": "55102", "DESCRIPCIO": "Servicios de residenciales y hostales" }, "geometry": { "type": "Point", "coordinates": [ -63.186310527866461, -17.795341526783201 ] } },
{ "type": "Feature", "properties": { "COD_ICE": "00980", "DISTRITO": "11", "LUGAR": "CIUDAD SANTA CRUZ DE LA SIERRA", "BARRIO": "CASCO VIEJO", "UV": null, "NOMBREREF": "RESIDENCIAL FABIOLA", "ESTECONOMI": "SERVICIOS DE HOSPEDAJE", "CLASIFICAD": "55102", "DESCRIPCIO": "Servicios de residenciales y hostales" }, "geometry": { "type": "Point", "coordinates": [ -63.187021275093834, -17.782390937532675 ] } },
{ "type": "Feature", "properties": { "COD_ICE": "05640", "DISTRITO": "11", "LUGAR": "CIUDAD SANTA CRUZ DE LA SIERRA", "BARRIO": "RAMADA", "UV": "UV-10", "NOMBREREF": "RESIDENCIAL VIA CASA", "ESTECONOMI": "SERVICIO DE HOSPEDAJE", "CLASIFICAD": "55102", "DESCRIPCIO": "Servicios de residenciales y hostales" }, "geometry": { "type": "Point", "coordinates": [ -63.191895466815126, -17.792954002292184 ] } },
{ "type": "Feature", "properties": { "COD_ICE": "04700", "DISTRITO": "11", "LUGAR": "CIUDAD SANTA CRUZ DE LA SIERRA", "BARRIO": "RAMADA", "UV": "UV-10", "NOMBREREF": "RESIDENCIAL ALEXANDERS", "ESTECONOMI": "SERVICIO DE HOSPEDAJE", "CLASIFICAD": "55102", "DESCRIPCIO": "Servicios de residenciales y hostales" }, "geometry": { "type": "Point", "coordinates": [ -63.190521884139294, -17.79107959072806 ] } },
{ "type": "Feature", "properties": { "COD_ICE": "02000", "DISTRITO": "11", "LUGAR": "CIUDAD SANTA CRUZ DE LA SIERRA", "BARRIO": "CASCO VIEJO", "UV": "UV-B", "NOMBREREF": "RESIDENCIAL LAS PALMERAS", "ESTECONOMI": "EN REFACCIONAMIENTO", "CLASIFICAD": "55102", "DESCRIPCIO": "Servicios de residenciales y hostales" }, "geometry": { "type": "Point", "coordinates": [ -63.177467906997336, -17.77940700577923 ] } },
{ "type": "Feature", "properties": { "COD_ICE": "02460", "DISTRITO": "11", "LUGAR": "CIUDAD SANTA CRUZ DE LA SIERRA", "BARRIO": "CASCO VIEJO", "UV": "UV-B", "NOMBREREF": "RESIDENCIAL P & J", "ESTECONOMI": "SERVICIO DE HOSPEDAJE", "CLASIFICAD": "55102", "DESCRIPCIO": "Servicios de residenciales y hostales" }, "geometry": { "type": "Point", "coordinates": [ -63.175654877630699, -17.778964930390803 ] } },
{ "type": "Feature", "properties": { "COD_ICE": "02470", "DISTRITO": "11", "LUGAR": "CIUDAD SANTA CRUZ DE LA SIERRA", "BARRIO": "CASCO VIEJO", "UV": "UV-B", "NOMBREREF": "HOSTAL AZTECA", "ESTECONOMI": null, "CLASIFICAD": "55102", "DESCRIPCIO": "Servicios de residenciales y hostales" }, "geometry": { "type": "Point", "coordinates": [ -63.17535541309261, -17.780894278911763 ] } },
{ "type": "Feature", "properties": { "COD_ICE": "00390", "DISTRITO": "11", "LUGAR": "CIUDAD SANTA CRUZ DE LA SIERRA", "BARRIO": "CASCO VIEJO", "UV": null, "NOMBREREF": "RESIDENCIAL SANTA ANA", "ESTECONOMI": "SERVICIO DE HOSPEDAJE", "CLASIFICAD": "55102", "DESCRIPCIO": "Servicios de residenciales y hostales" }, "geometry": { "type": "Point", "coordinates": [ -63.184868529201275, -17.78059088844179 ] } },
{ "type": "Feature", "properties": { "COD_ICE": "06890", "DISTRITO": "11", "LUGAR": "CIUDAD SANTA CRUZ DE LA SIERRA", "BARRIO": "RAMADA", "UV": null, "NOMBREREF": "RESIDENCIAL ANDIA", "ESTECONOMI": null, "CLASIFICAD": "55102", "DESCRIPCIO": "Servicios de residenciales y hostales" }, "geometry": { "type": "Point", "coordinates": [ -63.193304682382077, -17.796662545901299 ] } },
{ "type": "Feature", "properties": { "COD_ICE": "06890", "DISTRITO": "11", "LUGAR": "CIUDAD SANTA CRUZ DE LA SIERRA", "BARRIO": "RAMADA", "UV": null, "NOMBREREF": "RESIDENCIAL ANDIA", "ESTECONOMI": null, "CLASIFICAD": "55102", "DESCRIPCIO": "Servicios de residenciales y hostales" }, "geometry": { "type": "Point", "coordinates": [ -63.192980859745091, -17.79648967808232 ] } },
{ "type": "Feature", "properties": { "COD_ICE": "06040", "DISTRITO": "11", "LUGAR": "CIUDAD SANTA CRUZ DE LA SIERRA", "BARRIO": "RAMADA", "UV": "UV-10", "NOMBREREF": "RESIDENCIAL IMPERIAL", "ESTECONOMI": "SERVICIO DE HOSPEDAJE", "CLASIFICAD": "55102", "DESCRIPCIO": "Servicios de residenciales y hostales" }, "geometry": { "type": "Point", "coordinates": [ -63.191743018676569, -17.796373497434033 ] } },
{ "type": "Feature", "properties": { "COD_ICE": "06060", "DISTRITO": "11", "LUGAR": "CIUDAD SANTA CRUZ DE LA SIERRA", "BARRIO": "RAMADA", "UV": "UV-10", "NOMBREREF": "RESIDENCIAL VALLEGRANDE", "ESTECONOMI": "SERVICIO DE HOSPEDAJE", "CLASIFICAD": "55102", "DESCRIPCIO": "Servicios de residenciales y hostales" }, "geometry": { "type": "Point", "coordinates": [ -63.191943833308059, -17.793669107121829 ] } },
{ "type": "Feature", "properties": { "COD_ICE": "05110", "DISTRITO": "11", "LUGAR": "CIUDAD SANTA CRUZ DE LA SIERRA", "BARRIO": "SAN JOSE OBRERO", "UV": "UV-4", "NOMBREREF": "RESIDENCIAL DEYDA", "ESTECONOMI": "SERVICIOS DE ALOJAMIENTO", "CLASIFICAD": "55102", "DESCRIPCIO": "Servicios de residenciales y hostales" }, "geometry": { "type": "Point", "coordinates": [ -63.168451891421753, -17.785626691046389 ] } },
{ "type": "Feature", "properties": { "COD_ICE": "05830", "DISTRITO": "11", "LUGAR": "CIUDAD SANTA CRUZ DE LA SIERRA", "BARRIO": "LOS CHOFERES", "UV": "UV-06", "NOMBREREF": "HOSTAL INN INTERNATIONAL", "ESTECONOMI": null, "CLASIFICAD": "55102", "DESCRIPCIO": "Servicios de residenciales y hostales" }, "geometry": { "type": "Point", "coordinates": [ -63.169773926280492, -17.796256798390527 ] } },
{ "type": "Feature", "properties": { "COD_ICE": "03850", "DISTRITO": "11", "LUGAR": "CIUDAD SANTA CRUZ DE LA SIERRA", "BARRIO": "RAMADA", "UV": "UV-10", "NOMBREREF": "RESIDENCIAL PANAMERICANA", "ESTECONOMI": "SERVICIO DE HOSPEDAJE", "CLASIFICAD": "55102", "DESCRIPCIO": "Servicios de residenciales y hostales" }, "geometry": { "type": "Point", "coordinates": [ -63.187745650008956, -17.791476318848151 ] } },
{ "type": "Feature", "properties": { "COD_ICE": "02870", "DISTRITO": "11", "LUGAR": "CIUDAD SANTA CRUZ DE LA SIERRA", "BARRIO": "CASCO VIEJO", "UV": "UV-B", "NOMBREREF": "RESIDENCIAL QUINCE DE FEBRERO", "ESTECONOMI": "SERVICIO DE HOSPEDAJE", "CLASIFICAD": "55102", "DESCRIPCIO": "Servicios de residenciales y hostales" }, "geometry": { "type": "Point", "coordinates": [ -63.174340392392935, -17.779061235575238 ] } },
{ "type": "Feature", "properties": { "COD_ICE": "02870", "DISTRITO": "11", "LUGAR": "CIUDAD SANTA CRUZ DE LA SIERRA", "BARRIO": "CASCO VIEJO", "UV": "UV-B", "NOMBREREF": "RESIDENCIAL QUINCE DE FEBRERO", "ESTECONOMI": "SERVICIO DE HOSPEDAJE", "CLASIFICAD": "55102", "DESCRIPCIO": "Servicios de residenciales y hostales" }, "geometry": { "type": "Point", "coordinates": [ -63.175323868562941, -17.779096812488014 ] } },
{ "type": "Feature", "properties": { "COD_ICE": "02880", "DISTRITO": "11", "LUGAR": "CIUDAD SANTA CRUZ DE LA SIERRA", "BARRIO": "CASCO VIEJO", "UV": "UV-B", "NOMBREREF": "HOSTAL MAGDALENA", "ESTECONOMI": "SERVICIO DE HOSPEDAJE", "CLASIFICAD": "55102", "DESCRIPCIO": "Servicios de residenciales y hostales" }, "geometry": { "type": "Point", "coordinates": [ -63.174327564486305, -17.780710619633641 ] } },
{ "type": "Feature", "properties": { "COD_ICE": "02190", "DISTRITO": "11", "LUGAR": "CIUDAD SANTA CRUZ DE LA SIERRA", "BARRIO": "CASCO VIEJO", "UV": "UV-D", "NOMBREREF": "RESIDENCIAL ROYAS", "ESTECONOMI": "SERVICIOS DE HOSPEDAJE", "CLASIFICAD": "55102", "DESCRIPCIO": "Servicios de residenciales y hostales" }, "geometry": { "type": "Point", "coordinates": [ -63.185765381795434, -17.790666985737285 ] } },
{ "type": "Feature", "properties": { "COD_ICE": "02210", "DISTRITO": "11", "LUGAR": "CIUDAD SANTA CRUZ DE LA SIERRA", "BARRIO": "CASCO VIEJO", "UV": "UV-D", "NOMBREREF": "RESIDENCIAL TIGRE", "ESTECONOMI": "SERVICIO DE HOSPEDAJE", "CLASIFICAD": "55102", "DESCRIPCIO": "Servicios de residenciales y hostales" }, "geometry": { "type": "Point", "coordinates": [ -63.186894886953773, -17.790656131685623 ] } },
{ "type": "Feature", "properties": { "COD_ICE": "05790", "DISTRITO": "11", "LUGAR": "CIUDAD SANTA CRUZ DE LA SIERRA", "BARRIO": "SAN JOSE OBRERO", "UV": "UV-04", "NOMBREREF": "RESIDENCIAL DULCE AMANECER", "ESTECONOMI": "SERVICIOS DE HOSPEDAJE", "CLASIFICAD": "55102", "DESCRIPCIO": "Servicios de residenciales y hostales" }, "geometry": { "type": "Point", "coordinates": [ -63.166692241280963, -17.786282774815099 ] } },
{ "type": "Feature", "properties": { "COD_ICE": "04270", "DISTRITO": "11", "LUGAR": "CIUDAD SANTA CRUZ DE LA SIERRA", "BARRIO": "RAMADA", "UV": "UV-10", "NOMBREREF": "RESIDENCIA \"OBLAJES\"", "ESTECONOMI": null, "CLASIFICAD": "55102", "DESCRIPCIO": "Servicios de residenciales y hostales" }, "geometry": { "type": "Point", "coordinates": [ -63.188625216065788, -17.792361021566155 ] } },
{ "type": "Feature", "properties": { "COD_ICE": "03890", "DISTRITO": "11", "LUGAR": "CIUDAD SANTA CRUZ DE LA SIERRA", "BARRIO": null, "UV": "UV-10", "NOMBREREF": "RESIDENCIAL HISPANO", "ESTECONOMI": null, "CLASIFICAD": "55102", "DESCRIPCIO": "Servicios de residenciales y hostales" }, "geometry": { "type": "Point", "coordinates": [ -63.190151668397647, -17.788489882830504 ] } },
{ "type": "Feature", "properties": { "COD_ICE": "06020", "DISTRITO": "11", "LUGAR": "CIUDAD SANTA CRUZ DE LA SIERRA", "BARRIO": "EL PARI", "UV": "UV-09", "NOMBREREF": "RESIDENCIAL LEA¥O", "ESTECONOMI": "SERVICIOI DE ALOJAMIENTO", "CLASIFICAD": "55102", "DESCRIPCIO": "Servicios de residenciales y hostales" }, "geometry": { "type": "Point", "coordinates": [ -63.190028681368688, -17.797871330320518 ] } },
{ "type": "Feature", "properties": { "COD_ICE": "02850", "DISTRITO": "11", "LUGAR": "CIUDAD SANTA CRUZ DE LA SIERRA", "BARRIO": "CASCO VIEJO", "UV": null, "NOMBREREF": "RESIDENCIAL LA BRECHA", "ESTECONOMI": "SERVICIO DE HOSPEDAJE", "CLASIFICAD": "55102", "DESCRIPCIO": "Servicios de residenciales y hostales" }, "geometry": { "type": "Point", "coordinates": [ -63.174940382107508, -17.776846280274075 ] } },
{ "type": "Feature", "properties": { "COD_ICE": "00430", "DISTRITO": "11", "LUGAR": "CIUDAD SANTA CRUZ DE LA SIERRA", "BARRIO": "CASCO VIEJO", "UV": "UV-8", "NOMBREREF": "RESIDENCIAL MUNDIAL", "ESTECONOMI": null, "CLASIFICAD": "55102", "DESCRIPCIO": "Servicios de residenciales y hostales" }, "geometry": { "type": "Point", "coordinates": [ -63.180409275547674, -17.779540165039577 ] } },
{ "type": "Feature", "properties": { "COD_ICE": "00580", "DISTRITO": "11", "LUGAR": "CIUDAD SANTA CRUZ DE LA SIERRA", "BARRIO": "CASCO VIEJO", "UV": null, "NOMBREREF": "HOSTAL PORTO BELO", "ESTECONOMI": "SERVICIO DE H0SPEDAJE", "CLASIFICAD": "55102", "DESCRIPCIO": "Servicios de residenciales y hostales" }, "geometry": { "type": "Point", "coordinates": [ -63.184940888330125, -17.7866201578336 ] } },
{ "type": "Feature", "properties": { "COD_ICE": "00580", "DISTRITO": "11", "LUGAR": "CIUDAD SANTA CRUZ DE LA SIERRA", "BARRIO": "CASCO VIEJO", "UV": null, "NOMBREREF": "HOSTAL PORTO BELO", "ESTECONOMI": "SERVICIO DE H0SPEDAJE", "CLASIFICAD": "55102", "DESCRIPCIO": "Servicios de residenciales y hostales" }, "geometry": { "type": "Point", "coordinates": [ -63.185335234222919, -17.786889186621675 ] } },
{ "type": "Feature", "properties": { "COD_ICE": "03910", "DISTRITO": "11", "LUGAR": "CIUDAD SANTA CRUZ DE LA SIERRA", "BARRIO": "FE Y ALEGRIA - LA MERCED", "UV": "UV-11", "NOMBREREF": "RESIDENCIAL MIMOS", "ESTECONOMI": "SERVICIO DE HOSPEDAJE", "CLASIFICAD": "55102", "DESCRIPCIO": "Servicios de residenciales y hostales" }, "geometry": { "type": "Point", "coordinates": [ -63.189245907715438, -17.785904964500787 ] } },
{ "type": "Feature", "properties": { "COD_ICE": "00130", "DISTRITO": "11", "LUGAR": "CIUDAD SANTA CRUZ DE LA SIERRA", "BARRIO": "CASCO VIEJO", "UV": "UV-8", "NOMBREREF": "RESIDENCIAL JKANDIRE", "ESTECONOMI": "SERVICIO DE HOSPEDAJE", "CLASIFICAD": "55102", "DESCRIPCIO": "Servicios de residenciales y hostales" }, "geometry": { "type": "Point", "coordinates": [ -63.180967018654876, -17.783439514917497 ] } },
{ "type": "Feature", "properties": { "COD_ICE": "00600", "DISTRITO": "11", "LUGAR": "CIUDAD SANTA CRUZ DE LA SIERRA", "BARRIO": "7 CALLES", "UV": "UV-CI", "NOMBREREF": "RESIDENCIAL DORILDA", "ESTECONOMI": "SERVICIOS DE HOSPEDAJE", "CLASIFICAD": "55102", "DESCRIPCIO": "Servicios de residenciales y hostales" }, "geometry": { "type": "Point", "coordinates": [ -63.184950225241408, -17.785842127843889 ] } },
{ "type": "Feature", "properties": { "COD_ICE": "04700", "DISTRITO": "11", "LUGAR": "CIUDAD SANTA CRUZ DE LA SIERRA", "BARRIO": "RAMADA", "UV": "UV-10", "NOMBREREF": "RESIDENCIAL ALEXANDERS", "ESTECONOMI": "SERVICIO DE HOSPEDAJE", "CLASIFICAD": "55102", "DESCRIPCIO": "Servicios de residenciales y hostales" }, "geometry": { "type": "Point", "coordinates": [ -63.189835661338968, -17.790843886239493 ] } },
{ "type": "Feature", "properties": { "COD_ICE": "04700", "DISTRITO": "11", "LUGAR": "CIUDAD SANTA CRUZ DE LA SIERRA", "BARRIO": "RAMADA", "UV": "UV-10", "NOMBREREF": "RESIDENCIAL ALEXANDERS", "ESTECONOMI": "SERVICIO DE HOSPEDAJE", "CLASIFICAD": "55102", "DESCRIPCIO": "Servicios de residenciales y hostales" }, "geometry": { "type": "Point", "coordinates": [ -63.190356625791878, -17.790937384360294 ] } },
{ "type": "Feature", "properties": { "COD_ICE": "05310", "DISTRITO": "11", "LUGAR": "CIUDAD SANTA CRUZ DE LA SIERRA", "BARRIO": "RAMADA", "UV": "UV-10", "NOMBREREF": "RESIDENCIAL GRIGOTA", "ESTECONOMI": "SERVICO DE ALOJAMIENTO", "CLASIFICAD": "55102", "DESCRIPCIO": "Servicios de residenciales y hostales" }, "geometry": { "type": "Point", "coordinates": [ -63.189283206377276, -17.794466413167346 ] } },
{ "type": "Feature", "properties": { "COD_ICE": "02230", "DISTRITO": "11", "LUGAR": "CIUDAD SANTA CRUZ DE LA SIERRA", "BARRIO": "CASCO VIEJO", "UV": null, "NOMBREREF": "HOSTAL EL TURISTA", "ESTECONOMI": "SERVICIOS DE HOSPEDAJE", "CLASIFICAD": "55102", "DESCRIPCIO": "Servicios de residenciales y hostales" }, "geometry": { "type": "Point", "coordinates": [ -63.186955723844775, -17.789081046239573 ] } },
{ "type": "Feature", "properties": { "COD_ICE": "05630", "DISTRITO": "11", "LUGAR": "CIUDAD SANTA CRUZ DE LA SIERRA", "BARRIO": "RAMADA", "UV": "UV-10", "NOMBREREF": "RESIDENCIAL SAN JOSE", "ESTECONOMI": "SERVICIO DE ADMINISTRACION RESIDENCIAL SAN JOSE", "CLASIFICAD": "55102", "DESCRIPCIO": "Servicios de residenciales y hostales" }, "geometry": { "type": "Point", "coordinates": [ -63.190864630809251, -17.793092101936473 ] } },
{ "type": "Feature", "properties": { "COD_ICE": "06890", "DISTRITO": "11", "LUGAR": "CIUDAD SANTA CRUZ DE LA SIERRA", "BARRIO": "RAMADA", "UV": null, "NOMBREREF": "RESIDENCIAL ANDIA", "ESTECONOMI": null, "CLASIFICAD": "55102", "DESCRIPCIO": "Servicios de residenciales y hostales" }, "geometry": { "type": "Point", "coordinates": [ -63.192564283664233, -17.7968482582253 ] } },
{ "type": "Feature", "properties": { "COD_ICE": "06490", "DISTRITO": "11", "LUGAR": "CIUDAD SANTA CRUZ DE LA SIERRA", "BARRIO": "RAMADA", "UV": "UV-10", "NOMBREREF": "RESIDENCIAL ORIENTAL", "ESTECONOMI": "SEEVICIO DE HOSPEDAJE", "CLASIFICAD": "55102", "DESCRIPCIO": "Servicios de residenciales y hostales" }, "geometry": { "type": "Point", "coordinates": [ -63.192589437074872, -17.796158391983855 ] } },
{ "type": "Feature", "properties": { "COD_ICE": "06490", "DISTRITO": "11", "LUGAR": "CIUDAD SANTA CRUZ DE LA SIERRA", "BARRIO": "RAMADA", "UV": "UV-10", "NOMBREREF": "RESIDENCIAL ORIENTAL", "ESTECONOMI": "SEEVICIO DE HOSPEDAJE", "CLASIFICAD": "55102", "DESCRIPCIO": "Servicios de residenciales y hostales" }, "geometry": { "type": "Point", "coordinates": [ -63.192637255580983, -17.795824133923677 ] } },
{ "type": "Feature", "properties": { "COD_ICE": "01190", "DISTRITO": "12", "LUGAR": "CIUDAD SANTA CRUZ DE LA SIERRA", "BARRIO": "SAN FRANCISCO SUR", "UV": "UV-170", "NOMBREREF": "RESIDENCIAL MAC GREGOR", "ESTECONOMI": "SERVICIO D EHOSPEDAJE", "CLASIFICAD": "55102", "DESCRIPCIO": "Servicios de residenciales y hostales" }, "geometry": { "type": "Point", "coordinates": [ -63.171194321710999, -17.843662919037421 ] } },
{ "type": "Feature", "properties": { "COD_ICE": "00100", "DISTRITO": "12", "LUGAR": "CIUDAD SANTA CRUZ DE LA SIERRA", "BARRIO": "ROCA Y CORONADO", "UV": "UV-166", "NOMBREREF": "RESIDENCIAL TE MIMO", "ESTECONOMI": "SERVICIO DE HOSPEDAJE", "CLASIFICAD": "55102", "DESCRIPCIO": "Servicios de residenciales y hostales" }, "geometry": { "type": "Point", "coordinates": [ -63.158503044378485, -17.827593657110398 ] } },
{ "type": "Feature", "properties": { "COD_ICE": "00150", "DISTRITO": "12", "LUGAR": "CIUDAD SANTA CRUZ DE LA SIERRA", "BARRIO": "ROCA Y CORONADO", "UV": "UV-166", "NOMBREREF": "RESIDENCIAL 21 DE SEPTIEMBRE", "ESTECONOMI": null, "CLASIFICAD": "55102", "DESCRIPCIO": "Servicios de residenciales y hostales" }, "geometry": { "type": "Point", "coordinates": [ -63.160879136720972, -17.82967798048757 ] } },
{ "type": "Feature", "properties": { "COD_ICE": "07660", "DISTRITO": "02", "LUGAR": "CIUDAD SANTA CRUZ DE LA SIERRA", "BARRIO": "TOTAI", "UV": "UV-43", "NOMBREREF": "RESIDENCIAL CRUZ DE AVIS", "ESTECONOMI": null, "CLASIFICAD": "55102", "DESCRIPCIO": "Servicios de residenciales y hostales" }, "geometry": { "type": "Point", "coordinates": [ -63.148444656759921, -17.784911097932589 ] } },
{ "type": "Feature", "properties": { "COD_ICE": "05150", "DISTRITO": "02", "LUGAR": "CIUDAD SANTA CRUZ DE LA SIERRA", "BARRIO": "NUEVO ORIENTE", "UV": "UV-38", "NOMBREREF": "RESIDENCIAL MIMOS", "ESTECONOMI": null, "CLASIFICAD": "55102", "DESCRIPCIO": "Servicios de residenciales y hostales" }, "geometry": { "type": "Point", "coordinates": [ -63.166349591591562, -17.757049386957593 ] } },
{ "type": "Feature", "properties": { "COD_ICE": "04140", "DISTRITO": "02", "LUGAR": "CIUDAD SANTA CRUZ DE LA SIERRA", "BARRIO": "MAGISTERIO SANTA MARÖA", "UV": "UV-40", "NOMBREREF": "RESIDENCIAL MANISALES", "ESTECONOMI": null, "CLASIFICAD": "55102", "DESCRIPCIO": "Servicios de residenciales y hostales" }, "geometry": { "type": "Point", "coordinates": [ -63.158179989186515, -17.764306962063497 ] } },
{ "type": "Feature", "properties": { "COD_ICE": "03440", "DISTRITO": "02", "LUGAR": "CIUDAD SANTA CRUZ DE LA SIERRA", "BARRIO": "GRIGOTA", "UV": "UV-17", "NOMBREREF": "RESIDENCIAL MUTUALISTA", "ESTECONOMI": null, "CLASIFICAD": "55102", "DESCRIPCIO": "Servicios de residenciales y hostales" }, "geometry": { "type": "Point", "coordinates": [ -63.161597276428054, -17.764604731635224 ] } },
{ "type": "Feature", "properties": { "COD_ICE": "00650", "DISTRITO": "02", "LUGAR": "CIUDAD SANTA CRUZ DE LA SIERRA", "BARRIO": "LAZARETO", "UV": "UV-21", "NOMBREREF": "RESIDENCIAL GRACEDA", "ESTECONOMI": null, "CLASIFICAD": "55102", "DESCRIPCIO": "Servicios de residenciales y hostales" }, "geometry": { "type": "Point", "coordinates": [ -63.162461172913531, -17.786748101350565 ] } },
{ "type": "Feature", "properties": { "COD_ICE": "07370", "DISTRITO": "02", "LUGAR": "CIUDAD SANTA CRUZ DE LA SIERRA", "BARRIO": "LAZARETO", "UV": "UV-21", "NOMBREREF": "RESIDENCIAL CAMACHO", "ESTECONOMI": null, "CLASIFICAD": "55102", "DESCRIPCIO": "Servicios de residenciales y hostales" }, "geometry": { "type": "Point", "coordinates": [ -63.160790057882352, -17.785398030020968 ] } },
{ "type": "Feature", "properties": { "COD_ICE": "01440", "DISTRITO": "02", "LUGAR": "CIUDAD SANTA CRUZ DE LA SIERRA", "BARRIO": "LAZARETO", "UV": "UV-21", "NOMBREREF": "RESIDENCIAL OLGITA", "ESTECONOMI": null, "CLASIFICAD": "55102", "DESCRIPCIO": "Servicios de residenciales y hostales" }, "geometry": { "type": "Point", "coordinates": [ -63.160171631465921, -17.78493922482788 ] } },
{ "type": "Feature", "properties": { "COD_ICE": "01460", "DISTRITO": "02", "LUGAR": "CIUDAD SANTA CRUZ DE LA SIERRA", "BARRIO": "LAZARETO", "UV": "UV-21", "NOMBREREF": "RESIDENCIAL ANGELA", "ESTECONOMI": null, "CLASIFICAD": "55102", "DESCRIPCIO": "Servicios de residenciales y hostales" }, "geometry": { "type": "Point", "coordinates": [ -63.160007565658994, -17.782141925756815 ] } },
{ "type": "Feature", "properties": { "COD_ICE": "00100", "DISTRITO": "02", "LUGAR": "CIUDAD SANTA CRUZ DE LA SIERRA", "BARRIO": "LAZARETO", "UV": "UV-21", "NOMBREREF": "RESIDENCIAL BIOCEANICO", "ESTECONOMI": null, "CLASIFICAD": "55102", "DESCRIPCIO": "Servicios de residenciales y hostales" }, "geometry": { "type": "Point", "coordinates": [ -63.163350490008128, -17.787447283672989 ] } },
{ "type": "Feature", "properties": { "COD_ICE": "00100", "DISTRITO": "02", "LUGAR": "CIUDAD SANTA CRUZ DE LA SIERRA", "BARRIO": "LAZARETO", "UV": "UV-21", "NOMBREREF": "RESIDENCIAL BIOCEANICO", "ESTECONOMI": null, "CLASIFICAD": "55102", "DESCRIPCIO": "Servicios de residenciales y hostales" }, "geometry": { "type": "Point", "coordinates": [ -63.163451714002591, -17.787448007985958 ] } },
{ "type": "Feature", "properties": { "COD_ICE": "00660", "DISTRITO": "02", "LUGAR": "CIUDAD SANTA CRUZ DE LA SIERRA", "BARRIO": "LAZARETO", "UV": "UV-21", "NOMBREREF": "RESIDENCIAL MARIEL", "ESTECONOMI": null, "CLASIFICAD": "55102", "DESCRIPCIO": "Servicios de residenciales y hostales" }, "geometry": { "type": "Point", "coordinates": [ -63.161380682180251, -17.786068881958862 ] } },
{ "type": "Feature", "properties": { "COD_ICE": "04050", "DISTRITO": "03", "LUGAR": "CIUDAD SANTA CRUZ DE LA SIERRA", "BARRIO": "HEROES DEL CHACO", "UV": "UV-91", "NOMBREREF": "RESIDENCIAL 20 DE ENERO", "ESTECONOMI": "SERVICIO DE HOSPEDAJE", "CLASIFICAD": "55102", "DESCRIPCIO": "Servicios de residenciales y hostales" }, "geometry": { "type": "Point", "coordinates": [ -63.145841208317407, -17.799978937473337 ] } },
{ "type": "Feature", "properties": { "COD_ICE": "03630", "DISTRITO": "03", "LUGAR": "CIUDAD SANTA CRUZ DE LA SIERRA", "BARRIO": "CA¥ADA DEL CARMEN", "UV": "UV-92", "NOMBREREF": "RESIDENCIAL TAPEKUA", "ESTECONOMI": null, "CLASIFICAD": "55102", "DESCRIPCIO": "Servicios de residenciales y hostales" }, "geometry": { "type": "Point", "coordinates": [ -63.155985759534097, -17.808542498690972 ] } },
{ "type": "Feature", "properties": { "COD_ICE": "03250", "DISTRITO": "03", "LUGAR": "CIUDAD SANTA CRUZ DE LA SIERRA", "BARRIO": "SAN SILVESTRE", "UV": "UV-80", "NOMBREREF": "RESIDENCIAL JUANITA", "ESTECONOMI": "SERVICIOS DE ALOJAMIENTO", "CLASIFICAD": "55102", "DESCRIPCIO": "Servicios de residenciales y hostales" }, "geometry": { "type": "Point", "coordinates": [ -63.148014452777126, -17.790584893934206 ] } },
{ "type": "Feature", "properties": { "COD_ICE": "00410", "DISTRITO": "03", "LUGAR": "CIUDAD SANTA CRUZ DE LA SIERRA", "BARRIO": "COTECAR", "UV": "UV-23", "NOMBREREF": "RESIDENCIAL DON FRANCISCO", "ESTECONOMI": "SERVICIO DE HOSPEDAJE", "CLASIFICAD": "55102", "DESCRIPCIO": "Servicios de residenciales y hostales" }, "geometry": { "type": "Point", "coordinates": [ -63.163618949416829, -17.788490424466495 ] } },
{ "type": "Feature", "properties": { "COD_ICE": "00810", "DISTRITO": "03", "LUGAR": "CIUDAD SANTA CRUZ DE LA SIERRA", "BARRIO": "VICTORIA", "UV": "UV-23", "NOMBREREF": "RESIDENCIAL 7 DE MAYO", "ESTECONOMI": null, "CLASIFICAD": "55102", "DESCRIPCIO": "Servicios de residenciales y hostales" }, "geometry": { "type": "Point", "coordinates": [ -63.162865405357365, -17.789259048015353 ] } },
{ "type": "Feature", "properties": { "COD_ICE": "00810", "DISTRITO": "03", "LUGAR": "CIUDAD SANTA CRUZ DE LA SIERRA", "BARRIO": "VICTORIA", "UV": "UV-23", "NOMBREREF": "RESIDENCIAL 7 DE MAYO", "ESTECONOMI": null, "CLASIFICAD": "55102", "DESCRIPCIO": "Servicios de residenciales y hostales" }, "geometry": { "type": "Point", "coordinates": [ -63.163217372402727, -17.790015200501369 ] } },
{ "type": "Feature", "properties": { "COD_ICE": "00810", "DISTRITO": "03", "LUGAR": "CIUDAD SANTA CRUZ DE LA SIERRA", "BARRIO": "VICTORIA", "UV": "UV-23", "NOMBREREF": "RESIDENCIAL 7 DE MAYO", "ESTECONOMI": null, "CLASIFICAD": "55102", "DESCRIPCIO": "Servicios de residenciales y hostales" }, "geometry": { "type": "Point", "coordinates": [ -63.163027483924154, -17.790508102031509 ] } },
{ "type": "Feature", "properties": { "COD_ICE": "00810", "DISTRITO": "03", "LUGAR": "CIUDAD SANTA CRUZ DE LA SIERRA", "BARRIO": "VICTORIA", "UV": "UV-23", "NOMBREREF": "RESIDENCIAL 7 DE MAYO", "ESTECONOMI": null, "CLASIFICAD": "55102", "DESCRIPCIO": "Servicios de residenciales y hostales" }, "geometry": { "type": "Point", "coordinates": [ -63.162991759771216, -17.790374165920188 ] } },
{ "type": "Feature", "properties": { "COD_ICE": "00430", "DISTRITO": "03", "LUGAR": "CIUDAD SANTA CRUZ DE LA SIERRA", "BARRIO": "VICTORIA", "UV": "UV-23", "NOMBREREF": "RESIDENCIAL YULIMAR", "ESTECONOMI": null, "CLASIFICAD": "55102", "DESCRIPCIO": "Servicios de residenciales y hostales" }, "geometry": { "type": "Point", "coordinates": [ -63.163410032814816, -17.789661480365709 ] } },
{ "type": "Feature", "properties": { "COD_ICE": "00430", "DISTRITO": "03", "LUGAR": "CIUDAD SANTA CRUZ DE LA SIERRA", "BARRIO": "VICTORIA", "UV": "UV-23", "NOMBREREF": "RESIDENCIAL YULIMAR", "ESTECONOMI": null, "CLASIFICAD": "55102", "DESCRIPCIO": "Servicios de residenciales y hostales" }, "geometry": { "type": "Point", "coordinates": [ -63.163880184546969, -17.790512672679057 ] } },
{ "type": "Feature", "properties": { "COD_ICE": "00430", "DISTRITO": "03", "LUGAR": "CIUDAD SANTA CRUZ DE LA SIERRA", "BARRIO": "VICTORIA", "UV": "UV-23", "NOMBREREF": "RESIDENCIAL YULIMAR", "ESTECONOMI": null, "CLASIFICAD": "55102", "DESCRIPCIO": "Servicios de residenciales y hostales" }, "geometry": { "type": "Point", "coordinates": [ -63.163444671407724, -17.789177918704027 ] } },
{ "type": "Feature", "properties": { "COD_ICE": "00430", "DISTRITO": "03", "LUGAR": "CIUDAD SANTA CRUZ DE LA SIERRA", "BARRIO": "VICTORIA", "UV": "UV-23", "NOMBREREF": "RESIDENCIAL YULIMAR", "ESTECONOMI": null, "CLASIFICAD": "55102", "DESCRIPCIO": "Servicios de residenciales y hostales" }, "geometry": { "type": "Point", "coordinates": [ -63.163488122753144, -17.789318086661886 ] } },
{ "type": "Feature", "properties": { "COD_ICE": "00430", "DISTRITO": "03", "LUGAR": "CIUDAD SANTA CRUZ DE LA SIERRA", "BARRIO": "VICTORIA", "UV": "UV-23", "NOMBREREF": "RESIDENCIAL YULIMAR", "ESTECONOMI": null, "CLASIFICAD": "55102", "DESCRIPCIO": "Servicios de residenciales y hostales" }, "geometry": { "type": "Point", "coordinates": [ -63.163740676172893, -17.790085911896742 ] } },
{ "type": "Feature", "properties": { "COD_ICE": "00400", "DISTRITO": "03", "LUGAR": "CIUDAD SANTA CRUZ DE LA SIERRA", "BARRIO": null, "UV": "UV-23", "NOMBREREF": "RESIDENCIAL 27 DE ENERO", "ESTECONOMI": null, "CLASIFICAD": "55102", "DESCRIPCIO": "Servicios de residenciales y hostales" }, "geometry": { "type": "Point", "coordinates": [ -63.163676803167, -17.788732442112696 ] } },
{ "type": "Feature", "properties": { "COD_ICE": "00400", "DISTRITO": "03", "LUGAR": "CIUDAD SANTA CRUZ DE LA SIERRA", "BARRIO": null, "UV": "UV-23", "NOMBREREF": "RESIDENCIAL 27 DE ENERO", "ESTECONOMI": null, "CLASIFICAD": "55102", "DESCRIPCIO": "Servicios de residenciales y hostales" }, "geometry": { "type": "Point", "coordinates": [ -63.16436931370577, -17.790368996625769 ] } },
{ "type": "Feature", "properties": { "COD_ICE": "00400", "DISTRITO": "03", "LUGAR": "CIUDAD SANTA CRUZ DE LA SIERRA", "BARRIO": null, "UV": "UV-23", "NOMBREREF": "RESIDENCIAL 27 DE ENERO", "ESTECONOMI": null, "CLASIFICAD": "55102", "DESCRIPCIO": "Servicios de residenciales y hostales" }, "geometry": { "type": "Point", "coordinates": [ -63.164311468654937, -17.79019621403075 ] } },
{ "type": "Feature", "properties": { "COD_ICE": "00400", "DISTRITO": "03", "LUGAR": "CIUDAD SANTA CRUZ DE LA SIERRA", "BARRIO": null, "UV": "UV-23", "NOMBREREF": "RESIDENCIAL 27 DE ENERO", "ESTECONOMI": null, "CLASIFICAD": "55102", "DESCRIPCIO": "Servicios de residenciales y hostales" }, "geometry": { "type": "Point", "coordinates": [ -63.164229631875095, -17.790331496247145 ] } },
{ "type": "Feature", "properties": { "COD_ICE": "00400", "DISTRITO": "03", "LUGAR": "CIUDAD SANTA CRUZ DE LA SIERRA", "BARRIO": null, "UV": "UV-23", "NOMBREREF": "RESIDENCIAL 27 DE ENERO", "ESTECONOMI": null, "CLASIFICAD": "55102", "DESCRIPCIO": "Servicios de residenciales y hostales" }, "geometry": { "type": "Point", "coordinates": [ -63.164071925415712, -17.790266879675485 ] } },
{ "type": "Feature", "properties": { "COD_ICE": "00390", "DISTRITO": "03", "LUGAR": "CIUDAD SANTA CRUZ DE LA SIERRA", "BARRIO": null, "UV": "UV-23", "NOMBREREF": "RESIDENCIAL LAS PALMERAS", "ESTECONOMI": "SERVICIO DE HOSPEDAJE", "CLASIFICAD": "55102", "DESCRIPCIO": "Servicios de residenciales y hostales" }, "geometry": { "type": "Point", "coordinates": [ -63.164423567510099, -17.790715827801144 ] } },
{ "type": "Feature", "properties": { "COD_ICE": "00390", "DISTRITO": "03", "LUGAR": "CIUDAD SANTA CRUZ DE LA SIERRA", "BARRIO": null, "UV": "UV-23", "NOMBREREF": "RESIDENCIAL LAS PALMERAS", "ESTECONOMI": "SERVICIO DE HOSPEDAJE", "CLASIFICAD": "55102", "DESCRIPCIO": "Servicios de residenciales y hostales" }, "geometry": { "type": "Point", "coordinates": [ -63.164229640688653, -17.790829202732009 ] } },
{ "type": "Feature", "properties": { "COD_ICE": "00390", "DISTRITO": "03", "LUGAR": "CIUDAD SANTA CRUZ DE LA SIERRA", "BARRIO": null, "UV": "UV-23", "NOMBREREF": "RESIDENCIAL LAS PALMERAS", "ESTECONOMI": "SERVICIO DE HOSPEDAJE", "CLASIFICAD": "55102", "DESCRIPCIO": "Servicios de residenciales y hostales" }, "geometry": { "type": "Point", "coordinates": [ -63.16458315287575, -17.791075704353737 ] } },
{ "type": "Feature", "properties": { "COD_ICE": "00440", "DISTRITO": "03", "LUGAR": "CIUDAD SANTA CRUZ DE LA SIERRA", "BARRIO": "VICTORIA", "UV": "UV-23", "NOMBREREF": "RESIDENCIAL SAN BARTOLOME", "ESTECONOMI": "SERVICIO DE HOSPEDAJE", "CLASIFICAD": "55102", "DESCRIPCIO": "Servicios de residenciales y hostales" }, "geometry": { "type": "Point", "coordinates": [ -63.163054839861971, -17.791073303328766 ] } },
{ "type": "Feature", "properties": { "COD_ICE": "01930", "DISTRITO": "03", "LUGAR": "CIUDAD SANTA CRUZ DE LA SIERRA", "BARRIO": "SANANDITA", "UV": "UV-43B", "NOMBREREF": "RESIDENCIAL KATEHERIN", "ESTECONOMI": "SERVICIOS DE HOSPEDAJE", "CLASIFICAD": "55102", "DESCRIPCIO": "Servicios de residenciales y hostales" }, "geometry": { "type": "Point", "coordinates": [ -63.151619582736224, -17.790962557413543 ] } },
{ "type": "Feature", "properties": { "COD_ICE": "01940", "DISTRITO": "03", "LUGAR": "CIUDAD SANTA CRUZ DE LA SIERRA", "BARRIO": null, "UV": "UV-43B", "NOMBREREF": "RESIDENCIAL SANANDITA", "ESTECONOMI": "SERVICIOS DE HOSPEDAJE", "CLASIFICAD": "55102", "DESCRIPCIO": "Servicios de residenciales y hostales" }, "geometry": { "type": "Point", "coordinates": [ -63.154097190986221, -17.79280954782022 ] } },
{ "type": "Feature", "properties": { "COD_ICE": "01940", "DISTRITO": "03", "LUGAR": "CIUDAD SANTA CRUZ DE LA SIERRA", "BARRIO": null, "UV": "UV-43B", "NOMBREREF": "RESIDENCIAL SANANDITA", "ESTECONOMI": "SERVICIOS DE HOSPEDAJE", "CLASIFICAD": "55102", "DESCRIPCIO": "Servicios de residenciales y hostales" }, "geometry": { "type": "Point", "coordinates": [ -63.153752351586114, -17.792302559229174 ] } },
{ "type": "Feature", "properties": { "COD_ICE": "01370", "DISTRITO": "03", "LUGAR": "CIUDAD SANTA CRUZ DE LA SIERRA", "BARRIO": "SANANDITA", "UV": "UV-43B", "NOMBREREF": "RESIDENCIAL CARIBE", "ESTECONOMI": null, "CLASIFICAD": "55102", "DESCRIPCIO": "Servicios de residenciales y hostales" }, "geometry": { "type": "Point", "coordinates": [ -63.15649400351451, -17.792724342420563 ] } },
{ "type": "Feature", "properties": { "COD_ICE": "01370", "DISTRITO": "03", "LUGAR": "CIUDAD SANTA CRUZ DE LA SIERRA", "BARRIO": "SANANDITA", "UV": "UV-43B", "NOMBREREF": "RESIDENCIAL CARIBE", "ESTECONOMI": null, "CLASIFICAD": "55102", "DESCRIPCIO": "Servicios de residenciales y hostales" }, "geometry": { "type": "Point", "coordinates": [ -63.158923199076384, -17.793615177671704 ] } },
{ "type": "Feature", "properties": { "COD_ICE": "01310", "DISTRITO": "03", "LUGAR": "CIUDAD SANTA CRUZ DE LA SIERRA", "BARRIO": null, "UV": "UV-43B", "NOMBREREF": "RESIDENCIAL ANGELA 2", "ESTECONOMI": null, "CLASIFICAD": "55102", "DESCRIPCIO": "Servicios de residenciales y hostales" }, "geometry": { "type": "Point", "coordinates": [ -63.158928272455789, -17.794424322707222 ] } },
{ "type": "Feature", "properties": { "COD_ICE": "00420", "DISTRITO": "03", "LUGAR": "CIUDAD SANTA CRUZ DE LA SIERRA", "BARRIO": "COTECAR", "UV": "UV-23", "NOMBREREF": "RESIDENCIAL 9 DE MARZO", "ESTECONOMI": "SERVICIO DE HOSPEDAJE", "CLASIFICAD": "55102", "DESCRIPCIO": "Servicios de residenciales y hostales" }, "geometry": { "type": "Point", "coordinates": [ -63.162902402589374, -17.788091840515737 ] } },
{ "type": "Feature", "properties": { "COD_ICE": "00420", "DISTRITO": "03", "LUGAR": "CIUDAD SANTA CRUZ DE LA SIERRA", "BARRIO": "COTECAR", "UV": "UV-23", "NOMBREREF": "RESIDENCIAL 9 DE MARZO", "ESTECONOMI": "SERVICIO DE HOSPEDAJE", "CLASIFICAD": "55102", "DESCRIPCIO": "Servicios de residenciales y hostales" }, "geometry": { "type": "Point", "coordinates": [ -63.163060739932448, -17.788037820506855 ] } },
{ "type": "Feature", "properties": { "COD_ICE": "00420", "DISTRITO": "03", "LUGAR": "CIUDAD SANTA CRUZ DE LA SIERRA", "BARRIO": "COTECAR", "UV": "UV-23", "NOMBREREF": "RESIDENCIAL 9 DE MARZO", "ESTECONOMI": "SERVICIO DE HOSPEDAJE", "CLASIFICAD": "55102", "DESCRIPCIO": "Servicios de residenciales y hostales" }, "geometry": { "type": "Point", "coordinates": [ -63.163103262338062, -17.788159115693293 ] } },
{ "type": "Feature", "properties": { "COD_ICE": "00400", "DISTRITO": "03", "LUGAR": "CIUDAD SANTA CRUZ DE LA SIERRA", "BARRIO": null, "UV": "UV-23", "NOMBREREF": "RESIDENCIAL 27 DE ENERO", "ESTECONOMI": null, "CLASIFICAD": "55102", "DESCRIPCIO": "Servicios de residenciales y hostales" }, "geometry": { "type": "Point", "coordinates": [ -63.164136202108573, -17.789813043466257 ] } },
{ "type": "Feature", "properties": { "COD_ICE": "00400", "DISTRITO": "03", "LUGAR": "CIUDAD SANTA CRUZ DE LA SIERRA", "BARRIO": null, "UV": "UV-23", "NOMBREREF": "RESIDENCIAL 27 DE ENERO", "ESTECONOMI": null, "CLASIFICAD": "55102", "DESCRIPCIO": "Servicios de residenciales y hostales" }, "geometry": { "type": "Point", "coordinates": [ -63.164091786130903, -17.790326763026389 ] } },
{ "type": "Feature", "properties": { "COD_ICE": "00400", "DISTRITO": "03", "LUGAR": "CIUDAD SANTA CRUZ DE LA SIERRA", "BARRIO": null, "UV": "UV-23", "NOMBREREF": "RESIDENCIAL 27 DE ENERO", "ESTECONOMI": null, "CLASIFICAD": "55102", "DESCRIPCIO": "Servicios de residenciales y hostales" }, "geometry": { "type": "Point", "coordinates": [ -63.164335325659074, -17.790267595562366 ] } },
{ "type": "Feature", "properties": { "COD_ICE": "02700", "DISTRITO": "04", "LUGAR": "CIUDAD SANTA CRUZ DE LA SIERRA", "BARRIO": "COOPER", "UV": "UV-29", "NOMBREREF": "RESIDENCIAL TORDOYA", "ESTECONOMI": "ALQUILER DE HABITACIàN PARA HOSPEDAJE", "CLASIFICAD": "55102", "DESCRIPCIO": "Servicios de residenciales y hostales" }, "geometry": { "type": "Point", "coordinates": [ -63.203463981174252, -17.795464344146183 ] } },
{ "type": "Feature", "properties": { "COD_ICE": "02730", "DISTRITO": "04", "LUGAR": "CIUDAD SANTA CRUZ DE LA SIERRA", "BARRIO": "VILLA ROSARIO", "UV": "ET-14", "NOMBREREF": "RESIDENCIAL SANTIAGO", "ESTECONOMI": "SERVICIOS DE HOSPEDAJE", "CLASIFICAD": "55102", "DESCRIPCIO": "Servicios de residenciales y hostales" }, "geometry": { "type": "Point", "coordinates": [ -63.200383342187187, -17.803950398284009 ] } },
{ "type": "Feature", "properties": { "COD_ICE": "01630", "DISTRITO": "04", "LUGAR": "CIUDAD SANTA CRUZ DE LA SIERRA", "BARRIO": "SANTA ROSA", "UV": "UV-27", "NOMBREREF": "RESIDENCIAL JULIO", "ESTECONOMI": "SERVIOCIO DE HOSPEDAJE", "CLASIFICAD": "55102", "DESCRIPCIO": "Servicios de residenciales y hostales" }, "geometry": { "type": "Point", "coordinates": [ -63.187478731137645, -17.808030385427873 ] } },
{ "type": "Feature", "properties": { "COD_ICE": "02690", "DISTRITO": "04", "LUGAR": "CIUDAD SANTA CRUZ DE LA SIERRA", "BARRIO": "COOPER", "UV": "UV-29", "NOMBREREF": "RESIDENCIAL GUADALQUIVIR", "ESTECONOMI": "SERVICIOS DE ALOJAMIENTOS", "CLASIFICAD": "55102", "DESCRIPCIO": "Servicios de residenciales y hostales" }, "geometry": { "type": "Point", "coordinates": [ -63.203147542736517, -17.796432444303118 ] } },
{ "type": "Feature", "properties": { "COD_ICE": "06810", "DISTRITO": "04", "LUGAR": "CIUDAD SANTA CRUZ DE LA SIERRA", "BARRIO": "LAS PALMAS", "UV": "UV-52", "NOMBREREF": "RESIDENCIAL \"JAVY\"", "ESTECONOMI": "ALOJAMIENTO POR DIA", "CLASIFICAD": "55102", "DESCRIPCIO": "Servicios de residenciales y hostales" }, "geometry": { "type": "Point", "coordinates": [ -63.213938720728343, -17.802398848961509 ] } },
{ "type": "Feature", "properties": { "COD_ICE": "00920", "DISTRITO": "04", "LUGAR": "CIUDAD SANTA CRUZ DE LA SIERRA", "BARRIO": "EL PARI", "UV": "UV-28", "NOMBREREF": "RESIDENCIAL ALEJANDRO", "ESTECONOMI": null, "CLASIFICAD": "55102", "DESCRIPCIO": "Servicios de residenciales y hostales" }, "geometry": { "type": "Point", "coordinates": [ -63.194833280007579, -17.800418244840998 ] } },
{ "type": "Feature", "properties": { "COD_ICE": "02270", "DISTRITO": "04", "LUGAR": "CIUDAD SANTA CRUZ DE LA SIERRA", "BARRIO": "EL CARMEN", "UV": "UV-28", "NOMBREREF": "RESIDENCIAL MICKY", "ESTECONOMI": "SERVICIO DE HOSPEDAJE", "CLASIFICAD": "55102", "DESCRIPCIO": "Servicios de residenciales y hostales" }, "geometry": { "type": "Point", "coordinates": [ -63.193838328253825, -17.808983327514561 ] } },
{ "type": "Feature", "properties": { "COD_ICE": "08140", "DISTRITO": "06", "LUGAR": "CIUDAD SANTA CRUZ DE LA SIERRA", "BARRIO": "GUARACACHI", "UV": "uv-140", "NOMBREREF": "RESIDENCIAL GUARACACHI", "ESTECONOMI": "SERVICIO DE HOSPEDAJE", "CLASIFICAD": "55102", "DESCRIPCIO": "Servicios de residenciales y hostales" }, "geometry": { "type": "Point", "coordinates": [ -63.147671706350934, -17.788597225998167 ] } },
{ "type": "Feature", "properties": { "COD_ICE": "00140", "DISTRITO": "07", "LUGAR": "CIUDAD SANTA CRUZ DE LA SIERRA", "BARRIO": "METROPOLITANO", "UV": "UV-81", "NOMBREREF": "RESIDENCIAL MARGARET THATCHER", "ESTECONOMI": "SERVICIOS DE ALOJAMIENTO", "CLASIFICAD": "55102", "DESCRIPCIO": "Servicios de residenciales y hostales" }, "geometry": { "type": "Point", "coordinates": [ -63.142839776947213, -17.794478276804732 ] } },
{ "type": "Feature", "properties": { "COD_ICE": "01760", "DISTRITO": "07", "LUGAR": "CIUDAD SANTA CRUZ DE LA SIERRA", "BARRIO": "3 LAGUNAS", "UV": "UV-94", "NOMBREREF": "RESIDENCIAL CASCO VIEJO", "ESTECONOMI": "SERVICIO DE HOSPEDAJE", "CLASIFICAD": "55102", "DESCRIPCIO": "Servicios de residenciales y hostales" }, "geometry": { "type": "Point", "coordinates": [ -63.135145703638223, -17.802231183978858 ] } },
{ "type": "Feature", "properties": { "COD_ICE": "02460", "DISTRITO": "08", "LUGAR": "CIUDAD SANTA CRUZ DE LA SIERRA", "BARRIO": "SAN MARTIN", "UV": "UV-101", "NOMBREREF": "RESIDENCIAL SAN MARTIN", "ESTECONOMI": null, "CLASIFICAD": "55102", "DESCRIPCIO": "Servicios de residenciales y hostales" }, "geometry": { "type": "Point", "coordinates": [ -63.119792266824703, -17.818213089222088 ] } },
{ "type": "Feature", "properties": { "COD_ICE": "00100", "DISTRITO": "08", "LUGAR": "CIUDAD SANTA CRUZ DE LA SIERRA", "BARRIO": "CA¥ADA PAILITAS", "UV": "UV-104", "NOMBREREF": "RESIDENCIAL COSTAS DEL SOL", "ESTECONOMI": "SERVICIO DE HOSPEDAJE", "CLASIFICAD": "55102", "DESCRIPCIO": "Servicios de residenciales y hostales" }, "geometry": { "type": "Point", "coordinates": [ -63.150537532111748, -17.818029200133651 ] } },
{ "type": "Feature", "properties": { "COD_ICE": "02680", "DISTRITO": "08", "LUGAR": "CIUDAD SANTA CRUZ DE LA SIERRA", "BARRIO": "TORO TORO", "UV": "UV-149", "NOMBREREF": "RESIDENCIAL IYAMBAE", "ESTECONOMI": "SERVICIO DE HOSPEDAJE", "CLASIFICAD": "55102", "DESCRIPCIO": "Servicios de residenciales y hostales" }, "geometry": { "type": "Point", "coordinates": [ -63.138140626686585, -17.828962230879341 ] } },
{ "type": "Feature", "properties": { "COD_ICE": "02770", "DISTRITO": "08", "LUGAR": "CIUDAD SANTA CRUZ DE LA SIERRA", "BARRIO": null, "UV": "UV-149", "NOMBREREF": "RESIDENCIAL 18 DE MARZO", "ESTECONOMI": null, "CLASIFICAD": "55102", "DESCRIPCIO": "Servicios de residenciales y hostales" }, "geometry": { "type": "Point", "coordinates": [ -63.132542622119963, -17.826700406863626 ] } },
{ "type": "Feature", "properties": { "COD_ICE": "08820", "DISTRITO": "08", "LUGAR": "CIUDAD SANTA CRUZ DE LA SIERRA", "BARRIO": "URBANIZACION LAS ORQUIDEAS", "UV": "UV-163", "NOMBREREF": "RESIDENCIAL PEREZ", "ESTECONOMI": "SERVICIO DE HOSPEDAJE", "CLASIFICAD": "55102", "DESCRIPCIO": "Servicios de residenciales y hostales" }, "geometry": { "type": "Point", "coordinates": [ -63.124900461905561, -17.838477294996441 ] } },
{ "type": "Feature", "properties": { "COD_ICE": "01970", "DISTRITO": "08", "LUGAR": "CIUDAD SANTA CRUZ DE LA SIERRA", "BARRIO": "12 DE DICIEMBRE", "UV": "UV-147", "NOMBREREF": "RESIENCIAL ANDRES IBA¥EZ", "ESTECONOMI": "SERVICIO DE HOSPEDAJE", "CLASIFICAD": "55102", "DESCRIPCIO": "Servicios de residenciales y hostales" }, "geometry": { "type": "Point", "coordinates": [ -63.130877027301956, -17.824085947258105 ] } }
]
}
