{
"type": "FeatureCollection",
"crs": { "type": "name", "properties": { "name": "urn:ogc:def:crs:OGC:1.3:CRS84" } },
                                                                                                                                  
"features": [
{ "type": "Feature", "properties": { "COD_ICE": "00590", "DISTRITO": "01", "LUGAR": "CIUDAD SANTA CRUZ DE LA SIERRA", "BARRIO": "MACDONALD", "UV": "UV-36", "NOMBREREF": "UNIVERSIDAD PRIVADA NUR", "ESTECONOMI": "EDUCACION SUPERIOR", "CLASIFICAD": "803022", "DESCRIPCIO": "Educacion superior universitaria PRIVADA" }, "geometry": { "type": "Point", "coordinates": [ -63.182967421908891, -17.768927445344882 ] } },
{ "type": "Feature", "properties": { "COD_ICE": "03300", "DISTRITO": "01", "LUGAR": "CIUDAD SANTA CRUZ DE LA SIERRA", "BARRIO": "FAREMAFU", "UV": "ET-20", "NOMBREREF": "UTEPSA UNIVERSIDAD TECNOLOGICA PRIVADA DE SANTA CRUZ", "ESTECONOMI": "SERVICIOS ACADEMICOS DE PRE POST GRADO", "CLASIFICAD": "803022", "DESCRIPCIO": "Educacion superior universitaria PRIVADA" }, "geometry": { "type": "Point", "coordinates": [ -63.201181211837955, -17.767565118590742 ] } },
{ "type": "Feature", "properties": { "COD_ICE": "03300", "DISTRITO": "01", "LUGAR": "CIUDAD SANTA CRUZ DE LA SIERRA", "BARRIO": "FAREMAFU", "UV": "ET-20", "NOMBREREF": "UTEPSA UNIVERSIDAD TECNOLOGICA PRIVADA DE SANTA CRUZ", "ESTECONOMI": "SERVICIOS ACADEMICOS DE PRE POST GRADO", "CLASIFICAD": "803022", "DESCRIPCIO": "Educacion superior universitaria PRIVADA" }, "geometry": { "type": "Point", "coordinates": [ -63.201795681361986, -17.768321162072088 ] } },
{ "type": "Feature", "properties": { "COD_ICE": "00160", "DISTRITO": "01", "LUGAR": "CIUDAD SANTA CRUZ DE LA SIERRA", "BARRIO": "3 DE MAYO", "UV": "UV-32", "NOMBREREF": "UNIVERSIDAD UNIFRANZ", "ESTECONOMI": "SERVICIO DE ENSE¥ANZA A NIVEL SUPERIOR", "CLASIFICAD": "803022", "DESCRIPCIO": "Educacion superior universitaria PRIVADA" }, "geometry": { "type": "Point", "coordinates": [ -63.192405094127324, -17.774022701859849 ] } },
{ "type": "Feature", "properties": { "COD_ICE": "04390", "DISTRITO": "11", "LUGAR": "CIUDAD SANTA CRUZ DE LA SIERRA", "BARRIO": "PANAMERICANO", "UV": "UV-13", "NOMBREREF": "UNIVERSIDAD AUTONOMA GABRIEL  RENE MORENO", "ESTECONOMI": "CASA SUPERIOR DE ESTUDIOS", "CLASIFICAD": "803022", "DESCRIPCIO": "Educacion superior universitaria PRIVADA" }, "geometry": { "type": "Point", "coordinates": [ -63.1916654414633, -17.777681915619109 ] } },
{ "type": "Feature", "properties": { "COD_ICE": "04630", "DISTRITO": "11", "LUGAR": "CIUDAD SANTA CRUZ DE LA SIERRA", "BARRIO": null, "UV": "UV-7", "NOMBREREF": "UNIVERSIDAD CATOLICA", "ESTECONOMI": "SERVICIOS DE EDUCACION SUPERIOR PARA PSICOPEDAGOGIA", "CLASIFICAD": "803022", "DESCRIPCIO": "Educacion superior universitaria PRIVADA" }, "geometry": { "type": "Point", "coordinates": [ -63.178004531119754, -17.793723191222178 ] } },
{ "type": "Feature", "properties": { "COD_ICE": "05210", "DISTRITO": "11", "LUGAR": "CIUDAD SANTA CRUZ DE LA SIERRA", "BARRIO": null, "UV": "UV-7", "NOMBREREF": "UNIVERSIDAD SALESIANA", "ESTECONOMI": null, "CLASIFICAD": "803022", "DESCRIPCIO": "Educacion superior universitaria PRIVADA" }, "geometry": { "type": "Point", "coordinates": [ -63.175210844689353, -17.795054219498255 ] } },
{ "type": "Feature", "properties": { "COD_ICE": "02600", "DISTRITO": "11", "LUGAR": "CIUDAD SANTA CRUZ DE LA SIERRA", "BARRIO": "CASCO VIEJO", "UV": "UV-11", "NOMBREREF": "PG UAGRM BUSINNES SCHOOL", "ESTECONOMI": "NULL", "CLASIFICAD": "803022", "DESCRIPCIO": "Educacion superior universitaria PRIVADA" }, "geometry": { "type": "Point", "coordinates": [ -63.179133757905085, -17.790361819187027 ] } },
{ "type": "Feature", "properties": { "COD_ICE": "00460", "DISTRITO": "11", "LUGAR": "CIUDAD SANTA CRUZ DE LA SIERRA", "BARRIO": "CASCO VIEJO", "UV": "UV-8", "NOMBREREF": "UAGRM CARRERA IDIOMA", "ESTECONOMI": "NULL", "CLASIFICAD": "803022", "DESCRIPCIO": "Educacion superior universitaria PRIVADA" }, "geometry": { "type": "Point", "coordinates": [ -63.179217762888797, -17.782187979328626 ] } },
{ "type": "Feature", "properties": { "COD_ICE": "00450", "DISTRITO": "11", "LUGAR": "CIUDAD SANTA CRUZ DE LA SIERRA", "BARRIO": "CASCO VIEJO", "UV": "UV-8", "NOMBREREF": "UNIVERSIDAD PRIVADA NACIONAL ECOLOGICA", "ESTECONOMI": "SERVICIOS DE EDUCACION SUPERIOR UNIVERSITARIA", "CLASIFICAD": "803022", "DESCRIPCIO": "Educacion superior universitaria PRIVADA" }, "geometry": { "type": "Point", "coordinates": [ -63.179216770769138, -17.781296870320087 ] } },
{ "type": "Feature", "properties": { "COD_ICE": "03330", "DISTRITO": "11", "LUGAR": "CIUDAD SANTA CRUZ DE LA SIERRA", "BARRIO": "PANAMERICANO", "UV": "UV-13", "NOMBREREF": "UNVERSIDAD CUMBRE", "ESTECONOMI": "SERVICIOS DE EDUCACION SUPERIOR", "CLASIFICAD": "803022", "DESCRIPCIO": "Educacion superior universitaria PRIVADA" }, "geometry": { "type": "Point", "coordinates": [ -63.189146025464687, -17.778901112058662 ] } },
{ "type": "Feature", "properties": { "COD_ICE": "03360", "DISTRITO": "11", "LUGAR": "CIUDAD SANTA CRUZ DE LA SIERRA", "BARRIO": "PANAMERICANO", "UV": "UV-13", "NOMBREREF": "UNIVERSIDAD DE FUTBOL", "ESTECONOMI": "PARA SER DIRECTORES TECNICOS", "CLASIFICAD": "803022", "DESCRIPCIO": "Educacion superior universitaria PRIVADA" }, "geometry": { "type": "Point", "coordinates": [ -63.186811498361784, -17.776132551231481 ] } },
{ "type": "Feature", "properties": { "COD_ICE": "00300", "DISTRITO": "11", "LUGAR": "CIUDAD SANTA CRUZ DE LA SIERRA", "BARRIO": null, "UV": null, "NOMBREREF": "U.A.G.R.M", "ESTECONOMI": "NULL", "CLASIFICAD": "803022", "DESCRIPCIO": "Educacion superior universitaria PRIVADA" }, "geometry": { "type": "Point", "coordinates": [ -63.180869851064543, -17.786077443680711 ] } },
{ "type": "Feature", "properties": { "COD_ICE": "02500", "DISTRITO": "11", "LUGAR": "CIUDAD SANTA CRUZ DE LA SIERRA", "BARRIO": "CASCO VIEJO", "UV": null, "NOMBREREF": "U.A.G.R.M. D.I.E.U.", "ESTECONOMI": "NULL", "CLASIFICAD": "803022", "DESCRIPCIO": "Educacion superior universitaria PRIVADA" }, "geometry": { "type": "Point", "coordinates": [ -63.175350128646834, -17.783515078036036 ] } },
{ "type": "Feature", "properties": { "COD_ICE": "00380", "DISTRITO": "11", "LUGAR": "CIUDAD SANTA CRUZ DE LA SIERRA", "BARRIO": "CASCO VIEJO", "UV": null, "NOMBREREF": "UNIVERSIDAD PRIVADA UNO", "ESTECONOMI": "SERVICIO DE EDUCACION SUPERIOR LICENCIATURA", "CLASIFICAD": "803022", "DESCRIPCIO": "Educacion superior universitaria PRIVADA" }, "geometry": { "type": "Point", "coordinates": [ -63.184833568535247, -17.781792196751194 ] } },
{ "type": "Feature", "properties": { "COD_ICE": "00650", "DISTRITO": "11", "LUGAR": "CIUDAD SANTA CRUZ DE LA SIERRA", "BARRIO": "CASCO VIEJO", "UV": null, "NOMBREREF": "UNIVERSIDAD CATOLICA BOLIVIANA SAN PABLO", "ESTECONOMI": "SERVICIO DE EDUCACION SUPERIOR EN LICENCIATURA", "CLASIFICAD": "803022", "DESCRIPCIO": "Educacion superior universitaria PRIVADA" }, "geometry": { "type": "Point", "coordinates": [ -63.185220517174585, -17.781238193958526 ] } },
{ "type": "Feature", "properties": { "COD_ICE": "02360", "DISTRITO": "11", "LUGAR": "CIUDAD SANTA CRUZ DE LA SIERRA", "BARRIO": null, "UV": null, "NOMBREREF": "UNO UNIVERSIDAD NACINAL DEL ORIENTE", "ESTECONOMI": "SERVICIO DE ESTUDIO SUPERIOR", "CLASIFICAD": "803022", "DESCRIPCIO": "Educacion superior universitaria PRIVADA" }, "geometry": { "type": "Point", "coordinates": [ -63.183481229263414, -17.776618783108347 ] } },
{ "type": "Feature", "properties": { "COD_ICE": "07340", "DISTRITO": "11", "LUGAR": "CIUDAD SANTA CRUZ DE LA SIERRA", "BARRIO": "CASCO VIEJO", "UV": null, "NOMBREREF": "PROGRAMA CULTURAL VAGRM", "ESTECONOMI": null, "CLASIFICAD": "803022", "DESCRIPCIO": "Educacion superior universitaria PRIVADA" }, "geometry": { "type": "Point", "coordinates": [ -63.174712442104351, -17.791113850619745 ] } },
{ "type": "Feature", "properties": { "COD_ICE": "00700", "DISTRITO": "11", "LUGAR": "CIUDAD SANTA CRUZ DE LA SIERRA", "BARRIO": "CASCO VIEJO", "UV": null, "NOMBREREF": "UNIVERSIDAD TECNICA PRIVADA COSMOS UNITEPC", "ESTECONOMI": "SERVICIO DE ENSE¥ANZA DE EDUCACION SUPERIOR", "CLASIFICAD": "803022", "DESCRIPCIO": "Educacion superior universitaria PRIVADA" }, "geometry": { "type": "Point", "coordinates": [ -63.182264683269821, -17.779122209207777 ] } },
{ "type": "Feature", "properties": { "COD_ICE": "03630", "DISTRITO": "13", "LUGAR": "CIUDAD SANTA CRUZ DE LA SIERRA", "BARRIO": "LAS PAMPITAS", "UV": null, "NOMBREREF": "UNIVERSIDAD CATOLICA BOLIVIANA SAN PABLO", "ESTECONOMI": "SERVICIO DE EDUCACION SUPERIOR", "CLASIFICAD": "803022", "DESCRIPCIO": "Educacion superior universitaria PRIVADA" }, "geometry": { "type": "Point", "coordinates": [ -63.148854764967901, -17.693912364993082 ] } },
{ "type": "Feature", "properties": { "COD_ICE": "01710", "DISTRITO": "02", "LUGAR": "CIUDAD SANTA CRUZ DE LA SIERRA", "BARRIO": "FLEIG", "UV": "UV-16", "NOMBREREF": "UPB UNIVERSIDAD PRIVADA BOLIVIANA", "ESTECONOMI": "EDUCACION SUPERIOR UNIVERSITARIA", "CLASIFICAD": "803022", "DESCRIPCIO": "Educacion superior universitaria PRIVADA" }, "geometry": { "type": "Point", "coordinates": [ -63.173167506370675, -17.765050233625512 ] } },
{ "type": "Feature", "properties": { "COD_ICE": "03740", "DISTRITO": "02", "LUGAR": "CIUDAD SANTA CRUZ DE LA SIERRA", "BARRIO": "SANTA CLARA", "UV": "ET-1", "NOMBREREF": "UNIVERSIDAD PRIVADA DOMINGO SAVIO", "ESTECONOMI": "SERVICIO DE EDUCACION SUPERIOR UNIVERSITARIA", "CLASIFICAD": "803022", "DESCRIPCIO": "Educacion superior universitaria PRIVADA" }, "geometry": { "type": "Point", "coordinates": [ -63.174916670828857, -17.758420802004085 ] } },
{ "type": "Feature", "properties": { "COD_ICE": "00440", "DISTRITO": "03", "LUGAR": "CIUDAD SANTA CRUZ DE LA SIERRA", "BARRIO": "VICTORIA", "UV": "UV-23", "NOMBREREF": "UNIVERSIDAD CATOLICA BOLIVIANA SAN PABLO", "ESTECONOMI": "SERVICIO DE ENSE¥ANZA DE LA CARRERA CIENCIA RELIGIOSA", "CLASIFICAD": "803022", "DESCRIPCIO": "Educacion superior universitaria PRIVADA" }, "geometry": { "type": "Point", "coordinates": [ -63.163510320870898, -17.791384287230848 ] } },
{ "type": "Feature", "properties": { "COD_ICE": "01260", "DISTRITO": "05", "LUGAR": "CIUDAD SANTA CRUZ DE LA SIERRA", "BARRIO": "7 DE SEPTIEMBRE", "UV": "UV-72", "NOMBREREF": "UNIVERSIDAD CRISTIANA DE BOLIVIA", "ESTECONOMI": "SERVICIOS DE EDUCACIàN SUPERIOR", "CLASIFICAD": "803022", "DESCRIPCIO": "Educacion superior universitaria PRIVADA" }, "geometry": { "type": "Point", "coordinates": [ -63.170615405361595, -17.730719928135571 ] } },
{ "type": "Feature", "properties": { "COD_ICE": "01490", "DISTRITO": "05", "LUGAR": "CIUDAD SANTA CRUZ DE LA SIERRA", "BARRIO": "7 DE SEPTIEMBRE", "UV": "UV-72", "NOMBREREF": "ANFITEATRO (UCEBOL)", "ESTECONOMI": "REALIZACION DE PRACTICAS DE LA UCEBOL", "CLASIFICAD": "803022", "DESCRIPCIO": "Educacion superior universitaria PRIVADA" }, "geometry": { "type": "Point", "coordinates": [ -63.169020291447168, -17.729716037679808 ] } },
{ "type": "Feature", "properties": { "COD_ICE": "01210", "DISTRITO": "05", "LUGAR": "CIUDAD SANTA CRUZ DE LA SIERRA", "BARRIO": "UCEBOL", "UV": "UV-72", "NOMBREREF": "UNIVERSIDAD PRIVADA UCEBOL", "ESTECONOMI": "SERVICIO DE EDUCACION SUPERIOR", "CLASIFICAD": "803022", "DESCRIPCIO": "Educacion superior universitaria PRIVADA" }, "geometry": { "type": "Point", "coordinates": [ -63.167438081519052, -17.728074003908837 ] } },
{ "type": "Feature", "properties": { "COD_ICE": "01570", "DISTRITO": "05", "LUGAR": "CIUDAD SANTA CRUZ DE LA SIERRA", "BARRIO": "FERBO", "UV": "UV-68", "NOMBREREF": "UDI UNIVERSIDAD PRIVADA", "ESTECONOMI": "SERVICIO DE EDICACION UNIVERSITARIA PRIVADA", "CLASIFICAD": "803022", "DESCRIPCIO": "Educacion superior universitaria PRIVADA" }, "geometry": { "type": "Point", "coordinates": [ -63.169733037646992, -17.733936885422274 ] } },
{ "type": "Feature", "properties": { "COD_ICE": "04740", "DISTRITO": "09", "LUGAR": "CIUDAD SANTA CRUZ DE LA SIERRA", "BARRIO": "CRUZ DEL SUR", "UV": "ET-42", "NOMBREREF": "UNIVERSIDAD EVANGELICA", "ESTECONOMI": "SERVICIO DE EDUCACION UNIVERSITARIA", "CLASIFICAD": "803022", "DESCRIPCIO": "Educacion superior universitaria PRIVADA" }, "geometry": { "type": "Point", "coordinates": [ -63.20461903473921, -17.835650621888071 ] } },
{ "type": "Feature", "properties": { "COD_ICE": "06060", "DISTRITO": "09", "LUGAR": "CIUDAD SANTA CRUZ DE LA SIERRA", "BARRIO": null, "UV": "ET-43", "NOMBREREF": "FACULTAD DE AGROPECUARIA Y VETERINARIA DE LA UEB", "ESTECONOMI": "SERVICIOS UNIVERSITARIO DE VETERINARIA Y AGROPERCUARIA", "CLASIFICAD": "803022", "DESCRIPCIO": "Educacion superior universitaria PRIVADA" }, "geometry": { "type": "Point", "coordinates": [ -63.206077989907605, -17.838663590686089 ] } },
{ "type": "Feature", "properties": { "COD_ICE": "00600", "DISTRITO": "17", "LUGAR": "CIUDAD SANTA CRUZ DE LA SIERRA", "BARRIO": "PARQUE INDUSTRIAL", "UV": "UV-36", "NOMBREREF": "FUNDACION UPSA", "ESTECONOMI": "EDUCACION SUPERIOR", "CLASIFICAD": "803022", "DESCRIPCIO": "Educacion superior universitaria PRIVADA" }, "geometry": { "type": "Point", "coordinates": [ -63.148661155353913, -17.761080600603549 ] } },
{ "type": "Feature", "properties": { "COD_ICE": "00600", "DISTRITO": "17", "LUGAR": "CIUDAD SANTA CRUZ DE LA SIERRA", "BARRIO": "PARQUE INDUSTRIAL", "UV": "UV-36", "NOMBREREF": "FUNDACION UPSA", "ESTECONOMI": "EDUCACION SUPERIOR", "CLASIFICAD": "803022", "DESCRIPCIO": "Educacion superior universitaria PRIVADA" }, "geometry": { "type": "Point", "coordinates": [ -63.147405428437075, -17.761658157272798 ] } }
]
}
